PK,NOMBRE,DESCRIPCION-ENTIDAD,HORARIO,EQUIPAMIENTO,pistas,TRANSPORTE,DESCRIPCION,ACCESIBILIDAD,CONTENT-URL,NOMBRE-VIA,NUM,LOCALIDAD,PROVINCIA,CODIGO-POSTAL,BARRIO,DISTRITO,COORDENADA-X,COORDENADA-Y,LATITUD,LONGITUD,TIPO
11353987,Instalación Deportiva  Básica Embalse de San Juan,,,Pista de baloncesto. Pista de fútbol sala.,"Pista de baloncesto ,Pista de fútbol ","Bus: 58 , 63 , 145Renfe: Santa Eugenia",,0,http://www.madrid.es/sites/v/index.jsp?vgnextchannel=bfa48ab43d6bb410VgnVCM100000171f5a0aRCRD&vgnextoid=fa29f533a3468710VgnVCM1000001d4a900aRCRD,embalse de san juan,1,MADRID,MADRID,28051,ENSANCHE DE VALLECAS,VILLA DE VALLECAS,449213,4468179,40.36264285659688,-3.5981484314802064,InstalacionesDeportivasBasicas
6344681,Instalación Deportiva Básica Alto del Retiro,,,Pista polideportiva (marcajes de fútbol sala y balonmano) Pista baloncesto,Pista polideportiva,Metro: Las Suertes,,0,http://www.madrid.es/sites/v/index.jsp?vgnextchannel=bfa48ab43d6bb410VgnVCM100000171f5a0aRCRD&vgnextoid=5a7c2150461f5310VgnVCM1000000b205a0aRCRD,alto del retiro,13,MADRID,MADRID,28051,CASCO H.VALLECAS,VILLA DE VALLECAS,450057,4468715,40.36751469466709,-3.588264644913803,InstalacionesDeportivasBasicas
11350944,Instalación Deportiva Básica Avenida de Cerro Milano,,,Pista de baloncesto. Pista de fútbol,"Pista de baloncesto ,Pista de fútbol ",Metro: CongostoBus: 142,,0,http://www.madrid.es/sites/v/index.jsp?vgnextchannel=bfa48ab43d6bb410VgnVCM100000171f5a0aRCRD&vgnextoid=c3ccd112cde58710VgnVCM1000001d4a900aRCRD,cerro milano,1,MADRID,MADRID,28051,CASCO H.VALLECAS,VILLA DE VALLECAS,447502,4468855,40.36861899124304,-3.618356801446381,InstalacionesDeportivasBasicas
11350990,Instalación Deportiva Básica Avenida de las Suertes,,,Pista de baloncesto. Pista polideportiva (marcajes de fútbol sala y voleibol).,"Pista de baloncesto ,Pista polideportiva",Metro: Las Suertes,,0,http://www.madrid.es/sites/v/index.jsp?vgnextchannel=bfa48ab43d6bb410VgnVCM100000171f5a0aRCRD&vgnextoid=b777d112cde58710VgnVCM1000001d4a900aRCRD,avenida de las suertes,0,MADRID,MADRID,28051,ENSANCHE DE VALLECAS,VILLA DE VALLECAS,448037,4469037,40.370297266524084,-3.6120673755658,InstalacionesDeportivasBasicas
11350948,Instalación Deportiva Básica Avenida del Ensanche de Vallecas,,,Pista de baloncesto. Pista de fútbol. Pista de skate.,"Pista de baloncesto ,Pista de fútbol ,Pista de skate ",Metro: Las Suertes,,0,http://www.madrid.es/sites/v/index.jsp?vgnextchannel=bfa48ab43d6bb410VgnVCM100000171f5a0aRCRD&vgnextoid=867fd112cde58710VgnVCM1000001d4a900aRCRD,ensanche de vallecas,11,MADRID,MADRID,28051,ENSANCHE DE VALLECAS,VILLA DE VALLECAS,448037,4469037,40.370297266524084,-3.6120673755658,InstalacionesDeportivasBasicas
4540130,Instalación Deportiva Básica Camino de la Suerte,,,Pista de fútbol  de césped artificial.  Pista de fútbol  de tierra (próximamente de césped artificial).,"Pista de fútbol ,Pista de fútbol ","Metro: CongostoBus: 54 , 142.",,0,http://www.madrid.es/sites/v/index.jsp?vgnextchannel=bfa48ab43d6bb410VgnVCM100000171f5a0aRCRD&vgnextoid=9a6fd908b7551110VgnVCM1000000b205a0aRCRD,suerte,25,MADRID,MADRID,28031,CASCO H.VALLECAS,VILLA DE VALLECAS,447596,4469654,40.375813783817236,-3.617327043456161,CamposEstadiosFutbol
4540101,Instalación Deportiva Básica Circuito de Automodelismo,,,Pista de automodelismo,Pista de automodelismo ,"Metro: CongostoBus: 54 , 142",,0,http://www.madrid.es/sites/v/index.jsp?vgnextchannel=bfa48ab43d6bb410VgnVCM100000171f5a0aRCRD&vgnextoid=cee0b2e617551110VgnVCM1000000b205a0aRCRD,navamures,2,MADRID,MADRID,28031,ENSANCHE DE VALLECAS,VILLA DE VALLECAS,446796,4469329,40.3728517892704,-3.6267051095385274,InstalacionesDeportivasBasicas
4538536,Instalación Deportiva Básica Colonia Vilda,,," Pistas polideportivas, (marcajes de fútbol sala y balonmano y  baloncestos transversales).",Pista polideportiva,"Bus: 58 , 63 , 145Renfe: Santa Eugenia",,0,http://www.madrid.es/sites/v/index.jsp?vgnextchannel=bfa48ab43d6bb410VgnVCM100000171f5a0aRCRD&vgnextoid=617f55fdb3b41110VgnVCM1000000b205a0aRCRD,puentelarra,1,MADRID,MADRID,28031,SANTA EUGENIA,VILLA DE VALLECAS,448172,4470286,40.38154336396018,-3.6105817910016826,InstalacionesDeportivasBasicas
11352297,Instalación Deportiva Básica Eduardo Chillida,,,Pista de baloncesto y fútbol.,Pista de baloncesto ,"Bus: 58 , 63 , 145Renfe: Santa Eugenia",,0,http://www.madrid.es/sites/v/index.jsp?vgnextchannel=bfa48ab43d6bb410VgnVCM100000171f5a0aRCRD&vgnextoid=c981763979368710VgnVCM1000001d4a900aRCRD,eduardo chillida,1,MADRID,MADRID,28051,ENSANCHE DE VALLECAS,VILLA DE VALLECAS,450323,4468214,40.36302244550467,-3.585074019427532,InstalacionesDeportivasBasicas
10925321,Instalación Deportiva Básica Jardines del Teniente Alcalde,,,Pista polideportiva Pista de hockey Área multideportiva infantil,"Pista de hockey ,Pista polideportiva","Metro: Islas Filipinas, Canal Bus: 2, 12, 202",,3,http://www.madrid.es/sites/v/index.jsp?vgnextchannel=bfa48ab43d6bb410VgnVCM100000171f5a0aRCRD&vgnextoid=59182c579bdd9610VgnVCM2000001f4a900aRCRD,jardines del teniente alcalde,49,MADRID,MADRID,28003,VALLEHERMOSO,CHAMBERI,440261,4476761,40.43935627177327,-3.704371546221416,InstalacionesDeportivasBasicas
4538305,Instalación Deportiva Básica La Unión,,,Unidades deportivas cubiertas:   Pistas de pádel.    Unidades deportivas al aire libre:  Pista de fútbol  de césped artificial.,"Pistas de pádel ,Pista de fútbol ","Bus: 58 , 63 , 145",,0,http://www.madrid.es/sites/v/index.jsp?vgnextchannel=bfa48ab43d6bb410VgnVCM100000171f5a0aRCRD&vgnextoid=773aaae91fa41110VgnVCM1000000b205a0aRCRD,enrique garcia alvarez,58,MADRID,MADRID,28031,SANTA EUGENIA,VILLA DE VALLECAS,447810,4470500,40.383448627578446,-3.6148637823176353,CamposEstadiosFutbol
4538164,Instalación Deportiva Básica Nuestra Señora de la Torre,,, Pistas de Fútbol (césped artificial),Pista de fútbol ,"Metro: Villa de VallecasBus: 54 , 58 , 142",,0,http://www.madrid.es/sites/v/index.jsp?vgnextchannel=bfa48ab43d6bb410VgnVCM100000171f5a0aRCRD&vgnextoid=de89a56418a41110VgnVCM1000000b205a0aRCRD,puerto de reinosa,2,MADRID,MADRID,28031,CASCO H.VALLECAS,VILLA DE VALLECAS,447705,4469952,40.37850528372228,-3.6160557738839376,CamposEstadiosFutbol
4539403,Instalación Deportiva Básica P.A.R. Castrillo de Aza,,,Pista de baloncesto,Pista de baloncesto ,"Bus: 58 , 63 , 145Renfe: Santa Eugenia",,0,http://www.madrid.es/sites/v/index.jsp?vgnextchannel=bfa48ab43d6bb410VgnVCM100000171f5a0aRCRD&vgnextoid=a554a9b438051110VgnVCM1000000b205a0aRCRD,santa eugenia,1,MADRID,MADRID,28031,SANTA EUGENIA,VILLA DE VALLECAS,448343,4470808,40.38626820789469,-3.6086007213101885,InstalacionesDeportivasBasicas
11354193,Instalación Deportiva Básica Parkour,,,Pista de parkour. Pista de calistenia. Pista de baloncesto. Pista de patinaje.,"Pista de parkour.,Pista de calistenia.,Pista de baloncesto ,Pista de patinaje ","Bus: 58 , 63 , 145Renfe: Santa Eugenia",,0,http://www.madrid.es/sites/v/index.jsp?vgnextchannel=bfa48ab43d6bb410VgnVCM100000171f5a0aRCRD&vgnextoid=371ef533a3468710VgnVCM1000001d4a900aRCRD,la gavia,39,MADRID,MADRID,28051,ENSANCHE DE VALLECAS,VILLA DE VALLECAS,447918,4469016,40.37009915307182,-3.6134620847270176,InstalacionesDeportivasBasicas
5542270,Instalación Deportiva Básica Parque Real de Arganda,,, Pista de fútbol sala.,Pista de fútbol ,Metro: Villa de VallecasBus: 58,,0,http://www.madrid.es/sites/v/index.jsp?vgnextchannel=bfa48ab43d6bb410VgnVCM100000171f5a0aRCRD&vgnextoid=5c497740efc26210VgnVCM1000000b205a0aRCRD,real de arganda,45,MADRID,MADRID,28031,SANTA EUGENIA,VILLA DE VALLECAS,447786,4470059,40.37949103344629,-3.6150999353765094,InstalacionesDeportivasBasicas
4539259,Instalación Deportiva Básica Parque Santa Eugenia,,,Pista de skate,Pista de skate ,"Bus: 58 , 63 , 145Renfe: Santa Eugenia",,0,http://www.madrid.es/sites/v/index.jsp?vgnextchannel=bfa48ab43d6bb410VgnVCM100000171f5a0aRCRD&vgnextoid=2204a086b3051110VgnVCM1000000b205a0aRCRD,zazuar,12,MADRID,MADRID,28031,SANTA EUGENIA,VILLA DE VALLECAS,448352,4470258,40.38131130575197,-3.608459149580722,InstalacionesDeportivasBasicas
11358733,Instalación Deportiva Básica Parque Villa de Vallecas,,,Pista de fútbol sala.  Pistas de baloncesto (transversales). Pista de skate.,"Pista de fútbol ,Pista de baloncesto ,Pista de skate ","Metro: CongostoBus: 54 , 130 , 142",,0,http://www.madrid.es/sites/v/index.jsp?vgnextchannel=bfa48ab43d6bb410VgnVCM100000171f5a0aRCRD&vgnextoid=7a14291fa9288710VgnVCM1000001d4a900aRCRD,puerto de porzuna,50,MADRID,MADRID,28031,ENSANCHE DE VALLECAS,VILLA DE VALLECAS,446909,4469321,40.37277996162931,-3.6253783281885656,InstalacionesDeportivasBasicas
10923929,Instalación Deportiva Básica Parque de Enrique Herreros,,,Pista de baloncesto,Pista de baloncesto ,"Metro: Islas Filipinas, Canal Bus: 2, 12, 202",,3,http://www.madrid.es/sites/v/index.jsp?vgnextchannel=bfa48ab43d6bb410VgnVCM100000171f5a0aRCRD&vgnextoid=1aa8cde26f7d9610VgnVCM1000001d4a900aRCRD,bravo murillo,49,MADRID,MADRID,28003,VALLEHERMOSO,CHAMBERI,440261,4476761,40.43935627177327,-3.704371546221416,InstalacionesDeportivasBasicas
11360319,Instalación Deportiva Básica Parque del Cementerio,,,Pista polideportiva (marcajes de fútbol sala y  baloncestos transversales). Pista de fútbol sala.,"Pista de fútbol ,Pista polideportiva","Metro: Villa de VallecasBus: 54 , 142",,0,http://www.madrid.es/sites/v/index.jsp?vgnextchannel=bfa48ab43d6bb410VgnVCM100000171f5a0aRCRD&vgnextoid=cd020c3bf9f98710VgnVCM2000001f4a900aRCRD,montes de barbanza,15,MADRID,MADRID,28031,CASCO H.VALLECAS,VILLA DE VALLECAS,447495,4469796,40.37710310380217,-3.6185063391325323,CamposEstadiosFutbol
11358753,Instalación Deportiva Básica Parroquia Santa Eugenia,,,Pista de fútbol sala,Pista de fútbol ,"Bus: 58 , 63 , 145Renfe: Santa Eugenia",,0,http://www.madrid.es/sites/v/index.jsp?vgnextchannel=bfa48ab43d6bb410VgnVCM100000171f5a0aRCRD&vgnextoid=39a4291fa9288710VgnVCM1000001d4a900aRCRD,virgen de las vi&amp;ntilde;as,15,MADRID,MADRID,28031,SANTA EUGENIA,VILLA DE VALLECAS,448367,4470121,40.38008195615357,-3.608267379645755,InstalacionesDeportivasBasicas
11358766,Instalación Deportiva Básica Peñaranda de Bracamonte,,,Pista de baloncesto. Pista polideportiva (marcajes de fútbol sala y balonmano).,"Pista de baloncesto ,Pista polideportiva",Metro: CongostoBus: 142,,0,http://www.madrid.es/sites/v/index.jsp?vgnextchannel=bfa48ab43d6bb410VgnVCM100000171f5a0aRCRD&vgnextoid=52e5291fa9288710VgnVCM1000001d4a900aRCRD,peñaranda de bracamonte,4,MADRID,MADRID,28051,ENSANCHE DE VALLECAS,VILLA DE VALLECAS,448710,4469592,40.37533906377627,-3.604183911642277,InstalacionesDeportivasBasicas
11358784,Instalación Deportiva Básica Pista de Patinaje,,,Pista de patinaje,Pista de patinaje ,"Metro: CongostoBus: 54 , 130 , 142",,0,http://www.madrid.es/sites/v/index.jsp?vgnextchannel=bfa48ab43d6bb410VgnVCM100000171f5a0aRCRD&vgnextoid=1a96291fa9288710VgnVCM1000001d4a900aRCRD,puerto de porzuna,0,MADRID,MADRID,28031,ENSANCHE DE VALLECAS,VILLA DE VALLECAS,446909,4469321,40.37277996162931,-3.6253783281885656,PistasPatinaje
4540082,Instalación Deportiva Básica Poza de la Sal,,,Pista de baloncesto,Pista de baloncesto ,"Bus: 58 , 63 , 145",,0,http://www.madrid.es/sites/v/index.jsp?vgnextchannel=bfa48ab43d6bb410VgnVCM100000171f5a0aRCRD&vgnextoid=94376b6506551110VgnVCM1000000b205a0aRCRD,poza de la sal,2,MADRID,MADRID,28031,SANTA EUGENIA,VILLA DE VALLECAS,448816,4470012,40.37912373319082,-3.6029851282692733,InstalacionesDeportivasBasicas
4539953,Instalación Deportiva Básica Puentelarra,,,Pista de baloncesto  x ,Pista de baloncesto ,"Bus: 58 , 63 , 145Renfe: Santa Eugenia",,0,http://www.madrid.es/sites/v/index.jsp?vgnextchannel=bfa48ab43d6bb410VgnVCM100000171f5a0aRCRD&vgnextoid=2716c39144551110VgnVCM1000000b205a0aRCRD,puentelarra,12,MADRID,MADRID,28031,SANTA EUGENIA,VILLA DE VALLECAS,448296,4470473,40.38324470241852,-3.6091362899378696,InstalacionesDeportivasBasicas
6344730,Instalación Deportiva Básica Rocódromo,,,Pista skate Boulder Monolito,,Metro: Las Suertes,,0,http://www.madrid.es/sites/v/index.jsp?vgnextchannel=bfa48ab43d6bb410VgnVCM100000171f5a0aRCRD&vgnextoid=a2f8d4eb171f5310VgnVCM1000000b205a0aRCRD,la gavia,4,MADRID,MADRID,28051,CASCO H.VALLECAS,VILLA DE VALLECAS,448309,4469756,40.37678620920142,-3.608936762154641,InstalacionesDeportivasBasicas
11359398,Instalación Deportiva Básica Santa Eugenia,,, Pistas de fútbol (césped artificial),Pista de fútbol ,"Bus: 58 , 63 , 145Renfe: Santa Eugenia",,0,http://www.madrid.es/sites/v/index.jsp?vgnextchannel=bfa48ab43d6bb410VgnVCM100000171f5a0aRCRD&vgnextoid=2a57671143788710VgnVCM1000001d4a900aRCRD,cerro de almodovar,11,MADRID,MADRID,28031,SANTA EUGENIA,VILLA DE VALLECAS,448941,4470114,40.38004993117393,-3.6015066796262865,CamposEstadiosFutbol
11358863,Instalación Deportiva Básica Skate Real de Arganda,,,Bowl Pista de skate,Pista de skate ,Metro: Villa de VallecasBus: 58,,0,http://www.madrid.es/sites/v/index.jsp?vgnextchannel=bfa48ab43d6bb410VgnVCM100000171f5a0aRCRD&vgnextoid=fa2a6635ec288710VgnVCM1000001d4a900aRCRD,real de arganda,49,MADRID,MADRID,28031,SANTA EUGENIA,VILLA DE VALLECAS,447786,4470059,40.37949103344629,-3.6150999353765094,InstalacionesDeportivasBasicas
11358872,Instalación Deportiva Básica Stela Maris,,,Pista de baloncesto y fútbol,Pista de baloncesto ,Metro: CongostoBus: 142,,0,http://www.madrid.es/sites/v/index.jsp?vgnextchannel=bfa48ab43d6bb410VgnVCM100000171f5a0aRCRD&vgnextoid=346a6635ec288710VgnVCM1000001d4a900aRCRD,peñaranda de bracamonte,4,MADRID,MADRID,28051,ENSANCHE DE VALLECAS,VILLA DE VALLECAS,448710,4469592,40.37533906377627,-3.604183911642277,InstalacionesDeportivasBasicas
4642625,Instalación Deportiva Municipal Básica Abrantes - Colonia Velázquez,,, Pista de fútbol,Pista de fútbol ,"Metro: Pan Bendito, San Francisco.Bus: 47 , 108 , 118 , 121 , 131 , 155.",,0,http://www.madrid.es/sites/v/index.jsp?vgnextchannel=bfa48ab43d6bb410VgnVCM100000171f5a0aRCRD&vgnextoid=06d068171cef4110VgnVCM1000000b205a0aRCRD,abrantes,297,MADRID,MADRID,28025,ABRANTES,CARABANCHEL,437625,4469626,40.37480368698169,-3.734643175737238,CamposEstadiosFutbol
4554452,Instalación Deportiva Municipal Básica Alameda de Osuna I,,, Pistas de Baloncesto,Pista de baloncesto ,"Metro: El Capricho.Bus: 77 , 101 , 112 , 114 , 115 , 151.",,0,http://www.madrid.es/sites/v/index.jsp?vgnextchannel=bfa48ab43d6bb410VgnVCM100000171f5a0aRCRD&vgnextoid=a3560735dead1110VgnVCM1000000b205a0aRCRD,balandro,1,MADRID,MADRID,28042,ALAMEDA DE OSUNA,BARAJAS,449924,4478011,40.451251451000815,-3.5905626839548366,InstalacionesDeportivasBasicas
4555959,Instalación Deportiva Municipal Básica Alas,,, Pista de fútbol sala Pista de baloncesto Pistas de petanca,"Pista de fútbol ,Pista de baloncesto ,Pista de petanca ","Metro: BarajasBus: 101 , 105 , 115 , 151",,0,http://www.madrid.es/sites/v/index.jsp?vgnextchannel=bfa48ab43d6bb410VgnVCM100000171f5a0aRCRD&vgnextoid=d67d5c51350e1110VgnVCM1000000b205a0aRCRD,alas,2,MADRID,MADRID,28042,TIMON,BARAJAS,450428,4480316,40.472046513237736,-3.5847993053542355,CamposEstadiosFutbol
4557041,Instalación Deportiva Municipal Básica Albaicín,,, Pista de baloncesto,Pista de baloncesto ,"Bus: 60 , 76 , 78 , 81 , 116.",,0,http://www.madrid.es/sites/v/index.jsp?vgnextchannel=bfa48ab43d6bb410VgnVCM100000171f5a0aRCRD&vgnextoid=6e518d498a5e1110VgnVCM1000000b205a0aRCRD,albaicin,19,MADRID,MADRID,28041,ORCASUR,USERA,440477,4469068,40.36818417178253,-3.7023924767814074,InstalacionesDeportivasBasicas
4557439,Instalación Deportiva Municipal Básica Albaida,,, Patinódromo,,"Metro: Simancas , San BlasBus: 38 , 48",,0,http://www.madrid.es/sites/v/index.jsp?vgnextchannel=bfa48ab43d6bb410VgnVCM100000171f5a0aRCRD&vgnextoid=040cbad143ae1110VgnVCM1000000b205a0aRCRD,albaida,0,MADRID,MADRID,28037,HELLIN,SAN BLAS-CANILLEJAS,447522,4475904,40.430241502639134,-3.619981910665231,PistasPatinaje
4528002,Instalación Deportiva Municipal Básica Alcalde Martín de Alzaga,,, Pista de baloncesto,Pista de baloncesto ,"Metro: ValdezarzaBus: 64, 126, 127, 132",,0,http://www.madrid.es/sites/v/index.jsp?vgnextchannel=bfa48ab43d6bb410VgnVCM100000171f5a0aRCRD&vgnextoid=4257664d01ef0110VgnVCM1000000b205a0aRCRD,alcalde martin de alzaga,0,MADRID,MADRID,28039,VALDEZARZA,MONCLOA-ARAVACA,439396,4479597,40.46295611393323,-3.7161291203374565,InstalacionesDeportivasBasicas
4557476,Instalación Deportiva Municipal Básica Alerce,,, Pista polideportiva,Pista polideportiva,"Bus:  23 , 76 , 78 , 116 , 123.",,0,http://www.madrid.es/sites/v/index.jsp?vgnextchannel=bfa48ab43d6bb410VgnVCM100000171f5a0aRCRD&vgnextoid=42ae586285ae1110VgnVCM1000000b205a0aRCRD,alerce,31,MADRID,MADRID,28041,ORCASUR,USERA,441064,4468717,40.365063948772985,-3.695446430865286,InstalacionesDeportivasBasicas
4527220,Instalación Deportiva Municipal Básica Alfonso XIII,,, pistas de baloncesto. pista de patinaje. Pistas de bolos y petanca.,"Pista de baloncesto ,Pista de patinaje ,Pista de bolos ","Bus: 7 , 11 , 40 , 52 , 87",,0,http://www.madrid.es/sites/v/index.jsp?vgnextchannel=bfa48ab43d6bb410VgnVCM100000171f5a0aRCRD&vgnextoid=ea63124827ee0110VgnVCM1000000b205a0aRCRD,alfonso xiii,136,MADRID,MADRID,28016,NUEVA ESPAÑA,CHAMARTIN,443267,4479019,40.45990434942118,-3.669142805075655,PistasPatinaje
4556014,Instalación Deportiva Municipal Básica Alhaurín,,, Pista de baloncesto Pista de fútbol  (de tierra),"Pista de baloncesto ,Pista de fútbol ","Metro: Barajas.Bus: 105 , 115 , 151.",,0,http://www.madrid.es/sites/v/index.jsp?vgnextchannel=bfa48ab43d6bb410VgnVCM100000171f5a0aRCRD&vgnextoid=acda62a9470e1110VgnVCM1000000b205a0aRCRD,alhaurin,4,MADRID,MADRID,28042,TIMON,BARAJAS,450357,4480479,40.47351067334567,-3.585649589064375,InstalacionesDeportivasBasicas
4542702,Instalación Deportiva Municipal Básica Alicún,,, Pista de baloncesto.,Pista de baloncesto ,"Metro: ManoterasBus: 7 , 29 , 129",,0,http://www.madrid.es/sites/v/index.jsp?vgnextchannel=bfa48ab43d6bb410VgnVCM100000171f5a0aRCRD&vgnextoid=4c4d7e93dee61110VgnVCM1000000b205a0aRCRD,alicun,24,MADRID,MADRID,28033,APOSTOL SANTIAGO,HORTALEZA,444053,4481394,40.47947157886463,-3.6613616462578946,InstalacionesDeportivasBasicas
4542003,Instalación Deportiva Municipal Básica Aliseda,,,Superficie:  M  Equipamientos:  Pista polideportiva,Pista polideportiva,"Metro: San Francisco.Bus: 47 , 108 , 118",,0,http://www.madrid.es/sites/v/index.jsp?vgnextchannel=bfa48ab43d6bb410VgnVCM100000171f5a0aRCRD&vgnextoid=d5e92f9841a61110VgnVCM1000000b205a0aRCRD,aliseda,0,MADRID,MADRID,28025,PUERTA BONITA,CARABANCHEL,437017,4469768,40.3761084833036,-3.74193729795335,CamposEstadiosFutbol
4548436,Instalación Deportiva Municipal Básica Almudena,,, Pista de fútbol Pista polideportiva,"Pista de fútbol ,Pista polideportiva","Bus: 70 , 106",,0,http://www.madrid.es/sites/v/index.jsp?vgnextchannel=bfa48ab43d6bb410VgnVCM100000171f5a0aRCRD&vgnextoid=b6ed945136891110VgnVCM1000000b205a0aRCRD,nicolas salmeron,8,MADRID,MADRID,28017,PUEBLO NUEVO,CIUDAD LINEAL,446692,4474672,40.41909002674735,-3.6296630675589197,CamposEstadiosFutbol
4556653,Instalación Deportiva Municipal Básica Ambulatorio (El Paraiso),,, Pista de fútbol sala Pistas de baloncesto Pistas de petancaSkatepark,"Pista de fútbol ,Pista de baloncesto ,Pistas de petanca","Metro: SimancasBus:  4 , 38 , 48 , 70 , 109",,0,http://www.madrid.es/sites/v/index.jsp?vgnextchannel=bfa48ab43d6bb410VgnVCM100000171f5a0aRCRD&vgnextoid=d0822414d35e1110VgnVCM1000000b205a0aRCRD,ajofrin,0,MADRID,MADRID,28037,AMPOSTA,SAN BLAS-CANILLEJAS,447036,4475393,40.425607242600144,-3.6256685841403025,CamposEstadiosFutbol
5695851,Instalación Deportiva Municipal Básica Americio,,, Pista de baloncesto.,Pista de baloncesto ,"Bus: 85 , 123.",,0,http://www.madrid.es/sites/v/index.jsp?vgnextchannel=bfa48ab43d6bb410VgnVCM100000171f5a0aRCRD&vgnextoid=061c880b0aab8210VgnVCM2000000c205a0aRCRD,americio,0,MADRID,MADRID,28021,BUTARQUE,VILLAVERDE,442134,4467729,40.356238545684384,-3.6827549805431934,InstalacionesDeportivasBasicas
6310149,Instalación Deportiva Municipal Básica Ana Tutor,,, Pista de patinaje Pista de fútbol-sala,"Pista de patinaje ,Pista de Fútbol-Sala ","Metro: Avda. de la IlustraciónBus: 133, 49, 64, 83",,0,http://www.madrid.es/sites/v/index.jsp?vgnextchannel=bfa48ab43d6bb410VgnVCM100000171f5a0aRCRD&vgnextoid=bce62b6315d35310VgnVCM2000000c205a0aRCRD,cardenal herrera oria,216,MADRID,MADRID,28034,VALVERDE,FUENCARRAL-EL PARDO,441817,4482467,40.49087287315406,-3.6865580970863947,CamposEstadiosFutbol
4584548,Instalación Deportiva Municipal Básica Andévalo,,, Pista de balonmano,Pista de balonmano ,"Bus: 102 , 103 , 111",,0,http://www.madrid.es/sites/v/index.jsp?vgnextchannel=bfa48ab43d6bb410VgnVCM100000171f5a0aRCRD&vgnextoid=c8c6ed32dd2c2110VgnVCM1000000b205a0aRCRD,andevalo,6,MADRID,MADRID,28053,ENTREVIAS,PUENTE DE VALLECAS,443382,4469736,40.374404666864585,-3.668237382541929,InstalacionesDeportivasBasicas
4547544,Instalación Deportiva Municipal Básica Anfevi,,,Pista de fútbol sala Pistas de baloncesto,"Pista de fútbol ,Pista de baloncesto ","Metro: ArtillerosBus: 20 , 30 , 32 , 71 , 100 , 140.",,0,http://www.madrid.es/sites/v/index.jsp?vgnextchannel=bfa48ab43d6bb410VgnVCM100000171f5a0aRCRD&vgnextoid=3efff1c446391110VgnVCM2000000c205a0aRCRD,hacienda de pavones,127,MADRID,MADRID,28030,VINATEROS,MORATALAZ,445796,4472941,40.403438145048085,-3.6400762544982834,InstalacionesDeportivasBasicas
4527275,Instalación Deportiva Municipal Básica Aniceto Marinas,,, Pista de Baloncesto,Pista de baloncesto ,"Bus: 41 , 46 , 75",,0,http://www.madrid.es/sites/v/index.jsp?vgnextchannel=bfa48ab43d6bb410VgnVCM100000171f5a0aRCRD&vgnextoid=20f7c57598ee0110VgnVCM1000000b205a0aRCRD,aniceto marinas,106,MADRID,MADRID,28008,CASA DE CAMPO,MONCLOA-ARAVACA,437884,4476086,40.43121588404326,-3.7336179867525616,InstalacionesDeportivasBasicas
4528176,Instalación Deportiva Municipal Básica Antonio Machado,,, Pista de Baloncesto,Pista de baloncesto ,"Metro: ValdezarzaBus: 126 , 127 , 132",,0,http://www.madrid.es/sites/v/index.jsp?vgnextchannel=bfa48ab43d6bb410VgnVCM100000171f5a0aRCRD&vgnextoid=b37f532996ef0110VgnVCM1000000b205a0aRCRD,antonio machado,14,MADRID,MADRID,28035,VALDEZARZA,MONCLOA-ARAVACA,439149,4479944,40.46606393146319,-3.71907563377333,InstalacionesDeportivasBasicas
4548451,Instalación Deportiva Municipal Básica Antonio Pirala,,, Pista de fútbol sala Pistas de baloncesto,"Pista de fútbol ,Pista de baloncesto ","Metro: Ventas , El Carmen.Bus: 12 , 21 , 38 , 53 , 106 , 110 , 146 , 210",,0,http://www.madrid.es/sites/v/index.jsp?vgnextchannel=bfa48ab43d6bb410VgnVCM100000171f5a0aRCRD&vgnextoid=70b945dbd6891110VgnVCM1000000b205a0aRCRD,antonio pirala,0,MADRID,MADRID,28017,VENTAS,CIUDAD LINEAL,444154,4475985,40.43075144945157,-3.6596933792999025,CamposEstadiosFutbol
4557447,Instalación Deportiva Municipal Básica Arcaute,,," Pista polideportiva (con marcajes de fútbol sala, tenis y baloncesto)",Pista polideportiva,Bus: 77,,0,http://www.madrid.es/sites/v/index.jsp?vgnextchannel=bfa48ab43d6bb410VgnVCM100000171f5a0aRCRD&vgnextoid=59b6957e54ae1110VgnVCM1000000b205a0aRCRD,invierno,1,MADRID,MADRID,28022,REJAS,SAN BLAS-CANILLEJAS,451202,4477365,40.443627672731296,-3.576711464888384,InstalacionesDeportivasBasicas
4556739,Instalación Deportiva Municipal Básica Arcos de Jalón,,, Pista polideportiva Pistas de baloncesto Pista de voleibol Pista de patinaje,"Pista de baloncesto ,Pista de voleibol ,Pista de patinaje ,Pista polideportiva","Metro: San BlasBus: 4 , 38 , 48 , 140 , 153",,0,http://www.madrid.es/sites/v/index.jsp?vgnextchannel=bfa48ab43d6bb410VgnVCM100000171f5a0aRCRD&vgnextoid=352e8c86d45e1110VgnVCM1000000b205a0aRCRD,arcos de jalon,0,MADRID,MADRID,28037,ARCOS,SAN BLAS-CANILLEJAS,447860,4475237,40.42425405686439,-3.6159424880881414,PistasPatinaje
4670017,Instalación Deportiva Municipal Básica Arequipa,,, pistas de bolos y petanca,Pista de bolos ,"Metro: Mar de CristalBus: 87 , 104 , 112 , 120 , 125 , 172",,0,http://www.madrid.es/sites/v/index.jsp?vgnextchannel=bfa48ab43d6bb410VgnVCM100000171f5a0aRCRD&vgnextoid=88e2d141f97c5110VgnVCM1000000b205a0aRCRD,arequipa,12,MADRID,MADRID,28043,CANILLAS,HORTALEZA,445828,4479998,40.468885518432465,-3.6390339556431943,InstalacionesDeportivasBasicas
4543757,Instalación Deportiva Municipal Básica Arganda,,, Pista de Fútbol-Sala,Pista de Fútbol-Sala ,"Metro: PirámidesBus: 18 , 34 , 36 , 116 , 118 , 119Renfe: Pirámides",,0,http://www.madrid.es/sites/v/index.jsp?vgnextchannel=bfa48ab43d6bb410VgnVCM100000171f5a0aRCRD&vgnextoid=4cd10cd0d5471110VgnVCM1000000b205a0aRCRD,arganda,10,MADRID,MADRID,28005,ACACIAS,ARGANZUELA,439912,4472408,40.40011363617556,-3.7080977455472133,CamposEstadiosFutbol
4580352,Instalación Deportiva Municipal Básica Arjona,,, Pista de Fútbol,Pista de fútbol ,"Metro: LagunaBus: 31 , 55 , 138 , 139.Renfe: Laguna.",,0,http://www.madrid.es/sites/v/index.jsp?vgnextchannel=bfa48ab43d6bb410VgnVCM100000171f5a0aRCRD&vgnextoid=01aef0716c2b2110VgnVCM1000000b205a0aRCRD,concejal francisco jose jimenez martin,11,MADRID,MADRID,28047,LUCERO,LATINA,436579,4472630,40.39998426244181,-3.7486569900905633,CamposEstadiosFutbol
4548716,Instalación Deportiva Municipal Básica Arriaga,,, Pistas de baloncesto Pista de fútbol sala,"Pista de baloncesto ,Pista de fútbol ","Bus: 15 , 28 , 106 , 109 , 110 , 113",,0,http://www.madrid.es/sites/v/index.jsp?vgnextchannel=bfa48ab43d6bb410VgnVCM100000171f5a0aRCRD&vgnextoid=82f65e9248c91110VgnVCM1000000b205a0aRCRD,daroca,95,MADRID,MADRID,28017,PUEBLO NUEVO,CIUDAD LINEAL,445589,4475346,40.425090271008656,-3.6427216652412877,CamposEstadiosFutbol
6349189,Instalación Deportiva Municipal Básica Arroyo Belincoso,,, Pistas baloncesto Pista fúbol-sala,,"Metro: Pavones, VinaterosBus: 20 , 30 , 32 , 71 , 100 , 140 , 142 , 144.",,0,http://www.madrid.es/sites/v/index.jsp?vgnextchannel=bfa48ab43d6bb410VgnVCM100000171f5a0aRCRD&vgnextoid=e812bcfa0b606310VgnVCM1000000b205a0aRCRD,doctor garcia tapia,76,MADRID,MADRID,28030,MARROQUINA,MORATALAZ,444743,4473697,40.41206030334087,-3.6512840783264453,CamposEstadiosFutbol
4547664,Instalación Deportiva Municipal Básica Arroyo Fontarrón,,,Pista de fútbol sala,Pista de fútbol ,"Metro: PavonesBus: 8 , 20 , 30 , 54 , 63 , 71 , 100 , 140 , 142 , 144 , 145.",,0,http://www.madrid.es/sites/v/index.jsp?vgnextchannel=bfa48ab43d6bb410VgnVCM100000171f5a0aRCRD&vgnextoid=06d0c9ba6f391110VgnVCM2000000c205a0aRCRD,arroyo fontarron,381,MADRID,MADRID,28030,PAVONES,MORATALAZ,446067,4472082,40.39571737351038,-3.6368098584337534,CamposEstadiosFutbol
4643501,Instalación Deportiva Municipal Básica Arroyo de Opañel,,, Pista polideportiva,Pista polideportiva,"Metro: Plaza ElípticaBus: 55 , 60 , 116 , 155.",,0,http://www.madrid.es/sites/v/index.jsp?vgnextchannel=bfa48ab43d6bb410VgnVCM100000171f5a0aRCRD&vgnextoid=d06f941b73305110VgnVCM1000000b205a0aRCRD,arroyo opañel,12,MADRID,MADRID,28019,OPAÑEL,CARABANCHEL,439076,4471126,40.38849471888208,-3.717872942583152,InstalacionesDeportivasBasicas
4560369,Instalación Deportiva Municipal Básica Aster,,, Pista de Fútbol-Sala,Pista de Fútbol-Sala ,"Bus: 7 , 11 , 40 , 87",,0,http://www.madrid.es/sites/v/index.jsp?vgnextchannel=bfa48ab43d6bb410VgnVCM100000171f5a0aRCRD&vgnextoid=844fcc390c802110VgnVCM1000000b205a0aRCRD,aster,54,MADRID,MADRID,28016,HISPANOAMERICA,CHAMARTIN,443730,4478839,40.45643308528734,-3.664945117466593,CamposEstadiosFutbol
5716920,Instalación Deportiva Municipal Básica Auditorio de Chamartín,,,Pista de Baloncesto,Pista de baloncesto ,"Metro: Cruz del RayoBus: 1 , 9 , 29 , 52 , 73.",,0,http://www.madrid.es/sites/v/index.jsp?vgnextchannel=bfa48ab43d6bb410VgnVCM100000171f5a0aRCRD&vgnextoid=f969f99d08129210VgnVCM1000000b205a0aRCRD,joaquin rodrigo,1,MADRID,MADRID,28002,CIUDAD JARDÍN,CHAMARTIN,442574,4477426,40.44549718316204,-3.677183546596661,InstalacionesDeportivasBasicas
4547666,Instalación Deportiva Municipal Básica Auditorio de Moratalaz,,, Pista de fútbol sala  Tenis de mesa,Pista de fútbol ,"Metro: PavonesBus: 8 , 20 , 30 , 32 , 71 , 100 , 140 , 142 , 144.",,0,http://www.madrid.es/sites/v/index.jsp?vgnextchannel=bfa48ab43d6bb410VgnVCM100000171f5a0aRCRD&vgnextoid=6f36c9ba6f391110VgnVCM2000000c205a0aRCRD,hacienda de pavones,209,MADRID,MADRID,28030,VINATEROS,MORATALAZ,446047,4472715,40.40142760716397,-3.6370875655785446,CamposEstadiosFutbol
4547674,Instalación Deportiva Municipal Básica Avenida Moratalaz M-30,,, Pista de patinaje Pista de baloncesto,"Pista de patinaje ,Pista de baloncesto ","Metro: EstrellaBus: 8 , 20 , 30 , 32 , 113",,0,http://www.madrid.es/sites/v/index.jsp?vgnextchannel=bfa48ab43d6bb410VgnVCM100000171f5a0aRCRD&vgnextoid=428ac1f812491110VgnVCM2000000c205a0aRCRD,ramon areces,1,MADRID,MADRID,28030,FONTARRON,MORATALAZ,443903,4473461,40.40799695992161,-3.6624292972075247,PistasPatinaje
4542915,Instalación Deportiva Municipal Básica Avenida San Luis I,,, Tenis de mesa,,"Metro: HortalezaBus: 9 , 72 , 107 , 125 , 172",,0,http://www.madrid.es/sites/v/index.jsp?vgnextchannel=bfa48ab43d6bb410VgnVCM100000171f5a0aRCRD&vgnextoid=a8bef12fa4f61110VgnVCM1000000b205a0aRCRD,san luis,0,MADRID,MADRID,28033,PINAR DEL REY,HORTALEZA,444566,4480535,40.47176777610935,-3.6552344080978387,InstalacionesDeportivasBasicas
4546485,Instalación Deportiva Municipal Básica Avenida de Burgos,,, Pistas de Pádel,Pistas de pádel ,"Metro: BambúBus: 80 , 129, 150, 174.",,0,http://www.madrid.es/sites/v/index.jsp?vgnextchannel=bfa48ab43d6bb410VgnVCM100000171f5a0aRCRD&vgnextoid=4b781021e8d81110VgnVCM1000000b205a0aRCRD,burgos,18,MADRID,MADRID,28036,CASTILLA,CHAMARTIN,442738,4480806,40.475966086104684,-3.6755548165742606,CamposEstadiosFutbol
4541420,Instalación Deportiva Municipal Básica Ayacucho,,, pista de baloncesto,Pista de baloncesto ,"Metro: Mar de Cristal.Bus: 87 , 112 , 120 , 125 , 153 , 172.",,0,http://www.madrid.es/sites/v/index.jsp?vgnextchannel=bfa48ab43d6bb410VgnVCM100000171f5a0aRCRD&vgnextoid=8fc5bca369a51110VgnVCM1000000b205a0aRCRD,nevado del ruiz,2,MADRID,MADRID,28033,PINAR DEL REY,HORTALEZA,446146,4480096,40.46980031598844,-3.6352736110765864,InstalacionesDeportivasBasicas
11080873,Instalación Deportiva Municipal Básica Bacares,,,Rocódromo. Workout,,"Metro: ManoterasBus: 7 , 29 , 107 , 125 , 129",,0,http://www.madrid.es/sites/v/index.jsp?vgnextchannel=bfa48ab43d6bb410VgnVCM100000171f5a0aRCRD&vgnextoid=1150d952c30de610VgnVCM1000001d4a900aRCRD,bacares,9,MADRID,MADRID,28033,APOSTOL SANTIAGO,HORTALEZA,443851,4480837,40.476321176468005,-3.6624133831469945,CamposEstadiosFutbol
4543101,Instalación Deportiva Municipal Básica Bacares (fútbol),,, Pista de fútbol-sala pavimentado Pista de voleibol Pista de baloncesto Pista de patinaje Pista de skate,"Pista de Fútbol-Sala ,Pista de voleibol ,Pista de baloncesto ,Pista de patinaje ,Pista de skate ","Metro: ManoterasBus: 7 , 29 , 107 , 125 , 129",,0,http://www.madrid.es/sites/v/index.jsp?vgnextchannel=bfa48ab43d6bb410VgnVCM100000171f5a0aRCRD&vgnextoid=b9ed7874b8f61110VgnVCM1000000b205a0aRCRD,bacares,27,MADRID,MADRID,28033,APOSTOL SANTIAGO,HORTALEZA,443734,4480962,40.47743047451657,-3.663819108324953,CamposEstadiosFutbol
4556115,Instalación Deportiva Municipal Básica Bahía de Santander II,,, Pista de fútbol sala,Pista de fútbol ,"Bus: 105 , 112 , 115 , 151.",,0,http://www.madrid.es/sites/v/index.jsp?vgnextchannel=bfa48ab43d6bb410VgnVCM100000171f5a0aRCRD&vgnextoid=660c90270a0e1110VgnVCM1000000b205a0aRCRD,bahia de santander,64,MADRID,MADRID,28042,CORRALEJOS,BARAJAS,449627,4479571,40.46527791543298,-3.594188775058509,CamposEstadiosFutbol
4548713,Instalación Deportiva Municipal Básica Barceló,,, Pista Polideportiva,,"Metro: Tribunal , Alonso Martínez.Bus: 3 , 21 , 37 , 40 , 149",,0,http://www.madrid.es/sites/v/index.jsp?vgnextchannel=bfa48ab43d6bb410VgnVCM100000171f5a0aRCRD&vgnextoid=5875169c57c91110VgnVCM2000000c205a0aRCRD,barcelo,0,MADRID,MADRID,28004,JUSTICIA,CENTRO,440674,4475361,40.42677040240585,-3.699382450864087,InstalacionesDeportivasBasicas
4541265,Instalación Deportiva Municipal Básica Barrio El Querol - Spartak de Manoteras,,, Pista de fútbol ,Pista de fútbol ,"Bus: 7 , 29 , 129",,0,http://www.madrid.es/sites/v/index.jsp?vgnextchannel=bfa48ab43d6bb410VgnVCM100000171f5a0aRCRD&vgnextoid=9509f65195a51110VgnVCM1000000b205a0aRCRD,tijola,1,MADRID,MADRID,28033,APOSTOL SANTIAGO,HORTALEZA,444121,4481332,40.480800850285206,-3.659267661643925,CamposEstadiosFutbol
4561081,Instalación Deportiva Municipal Básica Barrio Goya,,, Pista de fútbol,Pista de fútbol ,"Bus: 17 , 25 , 50 , 119 , 138.",,0,http://www.madrid.es/sites/v/index.jsp?vgnextchannel=bfa48ab43d6bb410VgnVCM100000171f5a0aRCRD&vgnextoid=e904184a5b902110VgnVCM1000000b205a0aRCRD,sepulveda,9,MADRID,MADRID,28011,LOS CARMENES,LATINA,437472,4473065,40.40397057983696,-3.7381774083975357,CamposEstadiosFutbol
4547653,Instalación Deportiva Municipal Básica Barrio IV,,, Pistas baloncesto Pista fúbol-sala,,"Metro: PavonesBus: 20 , 30 , 32 , 71 , 100 , 140 , 142 , 144.",,0,http://www.madrid.es/sites/v/index.jsp?vgnextchannel=bfa48ab43d6bb410VgnVCM100000171f5a0aRCRD&vgnextoid=945663952e391110VgnVCM2000000c205a0aRCRD,luis de hoyos sainz,150,MADRID,MADRID,28030,PAVONES,MORATALAZ,446307,4472858,40.40272360732888,-3.6340475890184556,CamposEstadiosFutbol
4542627,Instalación Deportiva Municipal Básica Barrio de Las Cárcavas,,,Pista de skate,Pista de skate ,Bus: 87,,0,http://www.madrid.es/sites/v/index.jsp?vgnextchannel=bfa48ab43d6bb410VgnVCM100000171f5a0aRCRD&vgnextoid=34eba9e48ae61110VgnVCM1000000b205a0aRCRD,montoro,4,MADRID,MADRID,28055,VALDEFUENTES,HORTALEZA,446406,4481229,40.48002694808795,-3.6322988549742967,CamposEstadiosFutbol
6308361,Instalación Deportiva Municipal Básica Barrio de Santa Ana - Andrés Navarrete,,,Pista de fútbol  (césped artificial). Pista de fútbol  (césped artificial).  pistas de bolos y petanca.,"Pista de fútbol ,Pista de fútbol ,Pista de bolos ","Metro: FuencarralBus: 66 , 137",,0,http://www.madrid.es/sites/v/index.jsp?vgnextchannel=bfa48ab43d6bb410VgnVCM100000171f5a0aRCRD&vgnextoid=f876d9359e735310VgnVCM2000000c205a0aRCRD,hospitalet de llobregat,11,MADRID,MADRID,28034,VALVERDE,FUENCARRAL-EL PARDO,441133,4482878,40.49452475361937,-3.6946653699300733,CamposEstadiosFutbol
4555292,Instalación Deportiva Municipal Básica Barrio del Aeropuerto,,, Pista de fútbol  Pista polideportiva (con marcajes de fútbol sala y baloncesto) Tenis de mesa,"Pista de fútbol ,Pista polideportiva","Metro: El Capricho , Alameda de OsunaBus: 101 , 112 , 114 , 115 , 151",,0,http://www.madrid.es/sites/v/index.jsp?vgnextchannel=bfa48ab43d6bb410VgnVCM100000171f5a0aRCRD&vgnextoid=43ea70af27fd1110VgnVCM1000000b205a0aRCRD,medina de pomar,14,MADRID,MADRID,28042,AEROPUERTO,BARAJAS,450444,4478002,40.45120159850761,-3.5844180853262886,CamposEstadiosFutbol
4549165,Instalación Deportiva Municipal Básica Baterías - Barrio Alegría,,, Pista de fútbol sala Pista de baloncesto Pista de patinaje,"Pista de fútbol ,Pista de baloncesto ,Pista de patinaje ","Metro: Barrio de la Concepción Bus: 11 , 21 , 48 , 53 , 70 , 122 , 146",,0,http://www.madrid.es/sites/v/index.jsp?vgnextchannel=bfa48ab43d6bb410VgnVCM100000171f5a0aRCRD&vgnextoid=9d2677e116d91110VgnVCM1000000b205a0aRCRD,juan pérez zúñiga,0,MADRID,MADRID,28027,CONCEPCION,CIUDAD LINEAL,445139,4477155,40.44135712495445,-3.6481826411853,CamposEstadiosFutbol
4642682,Instalación Deportiva Municipal Básica Belzunegui,,, Pista de baloncesto,Pista de baloncesto ,"Metro: San Francisco , Pan Bendito.Bus: 47 , 108 , 118 , 121 , 131 , 155",,0,http://www.madrid.es/sites/v/index.jsp?vgnextchannel=bfa48ab43d6bb410VgnVCM100000171f5a0aRCRD&vgnextoid=a6649adbecef4110VgnVCM1000000b205a0aRCRD,belzunegui,0,MADRID,MADRID,28025,PUERTA BONITA,CARABANCHEL,437258,4469625,40.37487463533173,-3.739061311753124,InstalacionesDeportivasBasicas
4555851,Instalación Deportiva Municipal Básica Bolera de la Mancha,,, Pistas de tenis de mesa.,Pistas de tenis ,"Metro: AlmendralesBus: 6, 18 , 22 , 23 , 59 , 76 , 78 , 79 , 85 , 86 , 123.",,0,http://www.madrid.es/sites/v/index.jsp?vgnextchannel=bfa48ab43d6bb410VgnVCM100000171f5a0aRCRD&vgnextoid=e3ada2c4720e1110VgnVCM1000000b205a0aRCRD,tomelloso,21,MADRID,MADRID,28026,ALMENDRALES,USERA,440809,4470450,40.3806576674271,-3.6986108300552756,InstalacionesDeportivasBasicas
52832,Instalación Deportiva Municipal Básica Boston,,," Pista polideportiva cubierta (con marcajes de baloncesto, fútbol sala y balonmano) Tenis de Mesa",Pista polideportiva,"Metro: Parque de las AvenidasBus: 43 , 48 , 53 , 74",,0,http://www.madrid.es/sites/v/index.jsp?vgnextchannel=bfa48ab43d6bb410VgnVCM100000171f5a0aRCRD&vgnextoid=9386395961e4f010VgnVCM2000000c205a0aRCRD,boston,1,MADRID,MADRID,28028,GUINDALERA,SALAMANCA,443456,4476508,40.43729691048299,-3.6666902012771763,InstalacionesDeportivasBasicas
4548594,Instalación Deportiva Municipal Básica Brasil - General Yagüe,,,Pista de futbol-sala,Pista de Fútbol-Sala ,"Metro: CuzcoBus: 5 , 27, 40, 126 , 147, 149",,0,http://www.madrid.es/sites/v/index.jsp?vgnextchannel=bfa48ab43d6bb410VgnVCM100000171f5a0aRCRD&vgnextoid=55851b40e9891110VgnVCM2000000c205a0aRCRD,brasil,19,MADRID,MADRID,28020,CASTILLEJOS,TETUAN,441297,4478957,40.45732746079714,-3.693648871749584,InstalacionesDeportivasBasicas
5940746,Instalación Deportiva Municipal Básica Briviesca,,, Pista de baloncesto Pista de pádel,"Pista de baloncesto ,Pistas de pádel ","Metro: Pinar de ChamartínBus: 29 , 125 , 129 , 150.",,0,http://www.madrid.es/sites/v/index.jsp?vgnextchannel=bfa48ab43d6bb410VgnVCM100000171f5a0aRCRD&vgnextoid=5cbb9256c6bed210VgnVCM1000000b205a0aRCRD,briviesca,4,MADRID,MADRID,28033,COSTILLARES,CIUDAD LINEAL,443612,4481660,40.48183793645468,-3.6665879427690853,PistasPadel
4548441,Instalación Deportiva Municipal Básica Brujas,,, Pista de fútbol sala.,Pista de fútbol ,"Metro: PavonesBus: 8 , 20 , 30 , 32 , 71 , 100 , 140 , 142 , 144.",,0,http://www.madrid.es/sites/v/index.jsp?vgnextchannel=bfa48ab43d6bb410VgnVCM100000171f5a0aRCRD&vgnextoid=6a1a83dbd6891110VgnVCM2000000c205a0aRCRD,brujas,32,MADRID,MADRID,28030,PAVONES,MORATALAZ,446795,4472491,40.39944882958802,-3.6282662898026583,CamposEstadiosFutbol
6288965,Instalación Deportiva Municipal Básica Brunete,,, pista de baloncesto pista de fútbol-sala,"Pista de baloncesto ,Pista de Fútbol-Sala ",Metro: LacomaBus: 49,,0,http://www.madrid.es/sites/v/index.jsp?vgnextchannel=bfa48ab43d6bb410VgnVCM100000171f5a0aRCRD&vgnextoid=1be011a8111d4310VgnVCM2000000c205a0aRCRD,brunete,1,MADRID,MADRID,28048,EL PARDO,FUENCARRAL-EL PARDO,434449,4485393,40.516672960212716,-3.773795776219611,CamposEstadiosFutbol
4541501,Instalación Deportiva Municipal Básica Bucaramanga,,, Canastas de baloncesto para entrenamientoPistas de chito,Pistas de chito ,"Metro: San Lorenzo , Mar de CristalBus: 120 , 122 , 72 , 87",,0,http://www.madrid.es/sites/v/index.jsp?vgnextchannel=bfa48ab43d6bb410VgnVCM100000171f5a0aRCRD&vgnextoid=1b011fad7ba51110VgnVCM1000000b205a0aRCRD,bucaramanga,0,MADRID,MADRID,28033,PINAR DEL REY,HORTALEZA,445887,4480564,40.47211630976979,-3.639654414815554,InstalacionesDeportivasBasicas
4541536,Instalación Deportiva Municipal Básica Burgo de Osma,,, Pista polideportiva,Pista polideportiva,"Bus: 7 , 29 , 70 , 107 , 125",,0,http://www.madrid.es/sites/v/index.jsp?vgnextchannel=bfa48ab43d6bb410VgnVCM100000171f5a0aRCRD&vgnextoid=46793331bca51110VgnVCM1000000b205a0aRCRD,burgo de osma,5,MADRID,MADRID,28033,APOSTOL SANTIAGO,HORTALEZA,443836,4480028,40.46902347728972,-3.6625331191321413,CamposEstadiosFutbol
4527131,Instalación Deportiva Municipal Básica C. F. Nuestra Señora del Buen Camino,,, Pista de Fútbol (césped artificial),Pista de fútbol ,"Bus: 160 , 161 , I.Renfe: Aravaca",,0,http://www.madrid.es/sites/v/index.jsp?vgnextchannel=bfa48ab43d6bb410VgnVCM100000171f5a0aRCRD&vgnextoid=8789e08dc3ee0110VgnVCM1000000b205a0aRCRD,rio zancara,1,MADRID,MADRID,28023,ARAVACA,MONCLOA-ARAVACA,434004,4478507,40.452725617488625,-3.7796095540530086,CamposEstadiosFutbol
4542012,Instalación Deportiva Municipal Básica Calanda,,,Pista de Chito,Pistas de chito ,"Metro: EsperanzaBus: 73 , 120 , 122",,0,http://www.madrid.es/sites/v/index.jsp?vgnextchannel=bfa48ab43d6bb410VgnVCM100000171f5a0aRCRD&vgnextoid=d7132f9841a61110VgnVCM1000000b205a0aRCRD,calanda,30,MADRID,MADRID,28043,CANILLAS,HORTALEZA,445615,4479285,40.46246051111333,-3.6414728951814523,InstalacionesDeportivasBasicas
5940802,Instalación Deportiva Municipal Básica Caleruega,,, Pista de baloncesto,Pista de baloncesto ,"Metro: Pinar de ChamartínBus: 29 , 125 , 129 , 150.",,0,http://www.madrid.es/sites/v/index.jsp?vgnextchannel=bfa48ab43d6bb410VgnVCM100000171f5a0aRCRD&vgnextoid=be549256c6bed210VgnVCM1000000b205a0aRCRD,caleruega,52,MADRID,MADRID,28033,COSTILLARES,CIUDAD LINEAL,443187,4481578,40.48107021761235,-3.6715945896476194,CamposEstadiosFutbol
4545202,Instalación Deportiva Municipal Básica Camino Viejo de Leganés,,, Pista polideportiva,Pista polideportiva,"Metro: AbrantesBus: 47 , 108 , 118",,0,http://www.madrid.es/sites/v/index.jsp?vgnextchannel=bfa48ab43d6bb410VgnVCM100000171f5a0aRCRD&vgnextoid=4c8cea3c8dd71110VgnVCM1000000b205a0aRCRD,camino viejo de leganes,0,MADRID,MADRID,28025,PUERTA BONITA,CARABANCHEL,437922,4470323,40.38117601531834,-3.731343103155248,InstalacionesDeportivasBasicas
4663799,Instalación Deportiva Municipal Básica Campo Aragón,,, Pista de fútbolVestuario,Pista de fútbolVestuario ,"Metro: Miguel HernándezBus: 54 , 58 , 103 , 142 , 143 , 144",,0,http://www.madrid.es/sites/v/index.jsp?vgnextchannel=bfa48ab43d6bb410VgnVCM100000171f5a0aRCRD&vgnextoid=cba58203c8485110VgnVCM1000000b205a0aRCRD,rafael alberti,2,MADRID,MADRID,28038,PALOMERAS SURESTE,PUENTE DE VALLECAS,446016,4471719,40.39244393012934,-3.6373799409076795,CamposEstadiosFutbol
4660583,Instalación Deportiva Municipal Básica Campo Fútbol Puerta Bonita,,, Pista de Fútbol,Pista de fútbol ,"Metro: OportoBus: 34 , 35 , 81 , 55 , 108 , 118.",,0,http://www.madrid.es/sites/v/index.jsp?vgnextchannel=bfa48ab43d6bb410VgnVCM100000171f5a0aRCRD&vgnextoid=be23d10fd4f65110VgnVCM1000000b205a0aRCRD,general ricardos,166,MADRID,MADRID,28025,VISTA ALEGRE,CARABANCHEL,437797,4471076,40.3879590752267,-3.7328892106296774,CamposEstadiosFutbol
4629951,Instalación Deportiva Municipal Básica Campo de Fútbol Rodríguez Sahagún,,,Pista de fútbol (césped artificial),Pista de fútbol ,"Bus: 49 , 128",,0,http://www.madrid.es/sites/v/index.jsp?vgnextchannel=bfa48ab43d6bb410VgnVCM100000171f5a0aRCRD&vgnextoid=fc3fdfd39c794110VgnVCM1000000b205a0aRCRD,capitan blanco argibay,0,MADRID,MADRID,28029,VALDEACEDERAS,TETUAN,439791,4480281,40.469137606839034,-3.7115353164247873,CamposEstadiosFutbol
4542543,Instalación Deportiva Municipal Básica Campo de Fútbol San Martín de Porres,,, Pista de fútbol,Pista de fútbol ,"Bus: 17, 25",,0,http://www.madrid.es/sites/v/index.jsp?vgnextchannel=bfa48ab43d6bb410VgnVCM100000171f5a0aRCRD&vgnextoid=417aa1c3a9e61110VgnVCM1000000b205a0aRCRD,ermita del santo,0,MADRID,MADRID,28019,SAN ISIDRO,CARABANCHEL,437813,4472356,40.39949108577098,-3.732825709268183,CamposEstadiosFutbol
4664929,Instalación Deportiva Municipal Básica Campo de Fútbol Tierra,,, Pista de fútbol,Pista de fútbol ,"Metro: ArtillerosBus: 30 , 32 , 71",,0,http://www.madrid.es/sites/v/index.jsp?vgnextchannel=bfa48ab43d6bb410VgnVCM100000171f5a0aRCRD&vgnextoid=a4ba3fa5ace85110VgnVCM1000000b205a0aRCRD,doctor garcia tapia,113,MADRID,MADRID,28030,MARROQUINA,MORATALAZ,445569,4473842,40.41154005341027,-3.6428284510152453,CamposEstadiosFutbol
11386717,Instalación Deportiva Municipal Básica Campo de fútbol Orcasitas,,," Pista de fútbol, césped artificial. Vestuarios",Pista de fútbol ,"Bus: 6 , 60 , 131. Renfe: Orcasitas.",,0,http://www.madrid.es/sites/v/index.jsp?vgnextchannel=bfa48ab43d6bb410VgnVCM100000171f5a0aRCRD&vgnextoid=94d96bdaa0149710VgnVCM1000001d4a900aRCRD,rafaela ybarra,119,MADRID,MADRID,28041,ORCASITAS,USERA,439542,4468758,40.36720552010195,-3.71208812822708,CamposEstadiosFutbol
4549935,Instalación Deportiva Municipal Básica Canal de Panamá,,, Pista de fútbol sala,Pista de fútbol ,"Metro: Barrio de la ConcepciónBus: 11 , 21 , 48 , 53 , 122 , 146.",,0,http://www.madrid.es/sites/v/index.jsp?vgnextchannel=bfa48ab43d6bb410VgnVCM100000171f5a0aRCRD&vgnextoid=98bb6f91462a1110VgnVCM1000000b205a0aRCRD,canal de panama,0,MADRID,MADRID,28027,SAN PASCUAL,CIUDAD LINEAL,444814,4477116,40.44098424268766,-3.6520112027455554,CamposEstadiosFutbol
4542086,Instalación Deportiva Municipal Básica Canillas - Club Deportivo Canillas,,, Pista de fútbol (césped artificial con  marcajes de fútbol ) Pista de fútbol  (césped artificial),"Pista de fútbol ,Pista de fútbol ","Metro: Pinar del ReyBus: 9 , 72 , 87",,0,http://www.madrid.es/sites/v/index.jsp?vgnextchannel=bfa48ab43d6bb410VgnVCM100000171f5a0aRCRD&vgnextoid=250cfb7f34a61110VgnVCM1000000b205a0aRCRD,agustin de iturbide,1,MADRID,MADRID,28043,PINAR DEL REY,HORTALEZA,445010,4479966,40.46854356477104,-3.6486680716819206,CamposEstadiosFutbol
4557688,Instalación Deportiva Municipal Básica Carlos II,,, Pista de baloncesto Pista de fútbol sala,"Pista de baloncesto ,Pista de fútbol ","Bus: 38 , 48 , 140",,0,http://www.madrid.es/sites/v/index.jsp?vgnextchannel=bfa48ab43d6bb410VgnVCM100000171f5a0aRCRD&vgnextoid=225c77f0d8ae1110VgnVCM1000000b205a0aRCRD,carlos ii,4,MADRID,MADRID,28022,ROSAS,SAN BLAS-CANILLEJAS,448568,4475611,40.42766744656451,-3.6076270875712217,CamposEstadiosFutbol
4583473,Instalación Deportiva Municipal Básica Carlos Solé,,, Frontón corto Pistas de tenis   Pistas de pádel,"Pistas de tenis ,Pistas de pádel ","Metro: Buenos Aires , Alto del ArenalBus: 54 , 57 , 58 , 103 , 136 , 141 , 143",,0,http://www.madrid.es/sites/v/index.jsp?vgnextchannel=bfa48ab43d6bb410VgnVCM100000171f5a0aRCRD&vgnextoid=75d200123edb2110VgnVCM1000000b205a0aRCRD,carlos sole,19,MADRID,MADRID,28038,PORTAZGO,PUENTE DE VALLECAS,445004,4471693,40.39214336748665,-3.6493011871581325,PistasTenisBadminton
6349357,Instalación Deportiva Municipal Básica Carmen Amaya,,, Pista baloncesto Pista fúbol-sala,,"Metro: PavonesBus: 20 , 30 , 32 , 71 , 100 , 140 , 142 , 144.",,0,http://www.madrid.es/sites/v/index.jsp?vgnextchannel=bfa48ab43d6bb410VgnVCM100000171f5a0aRCRD&vgnextoid=50a72f68db606310VgnVCM1000000b205a0aRCRD,doctor garcia tapia,0,MADRID,MADRID,28030,MARROQUINA,MORATALAZ,444852,4473905,40.41206030334087,-3.6512840783264453,CamposEstadiosFutbol
4659353,Instalación Deportiva Municipal Básica Caronte,,, Pista polideportiva,Pista polideportiva,"Metro: Marqués de Vadillo , UrgelBus: 34 , 35 , 118 , 119",,0,http://www.madrid.es/sites/v/index.jsp?vgnextchannel=bfa48ab43d6bb410VgnVCM100000171f5a0aRCRD&vgnextoid=683881f05ba65110VgnVCM1000000b205a0aRCRD,caronte,4,MADRID,MADRID,28019,SAN ISIDRO,CARABANCHEL,438759,4472032,40.396642453268775,-3.721647689712961,InstalacionesDeportivasBasicas
4540143,Instalación Deportiva Municipal Básica Carril del Conde,,, Pista de baloncesto,Pista de baloncesto ,"Metro: Arturo SoriaBus: 9 , 11 , 70 , 72 , 73 , 120 , 122.",,0,http://www.madrid.es/sites/v/index.jsp?vgnextchannel=bfa48ab43d6bb410VgnVCM100000171f5a0aRCRD&vgnextoid=fb5cbab638551110VgnVCM1000000b205a0aRCRD,carril del conde,0,MADRID,MADRID,28043,CANILLAS,HORTALEZA,444625,4479327,40.46088946853693,-3.654432812836867,InstalacionesDeportivasBasicas
4542523,Instalación Deportiva Municipal Básica Carrión de los Condes,,, Pistas de petanca,Pista de petanca ,"Metro: ManoterasBus: 7 , 29 , 107 , 125 , 129",,0,http://www.madrid.es/sites/v/index.jsp?vgnextchannel=bfa48ab43d6bb410VgnVCM100000171f5a0aRCRD&vgnextoid=e31bfdaa18e61110VgnVCM1000000b205a0aRCRD,templarios,4,MADRID,MADRID,28033,APOSTOL SANTIAGO,HORTALEZA,444201,4480819,40.47430169221348,-3.6595649567170168,InstalacionesDeportivasBasicas
5870186,Instalación Deportiva Municipal Básica Casa Campo,,, Pista de baloncesto,Pista de baloncesto ,Metro: Lago.,,0,http://www.madrid.es/sites/v/index.jsp?vgnextchannel=bfa48ab43d6bb410VgnVCM100000171f5a0aRCRD&vgnextoid=139cf80f8de5c210VgnVCM1000000b205a0aRCRD,casa de campo,0,MADRID,MADRID,28011,CASA DE CAMPO,MONCLOA-ARAVACA,437549,4474462,40.4184340515621,-3.736143042995308,InstalacionesDeportivasBasicas
5869345,Instalación Deportiva Municipal Básica Casa Campo I Lago,,, Pista de fútbol,Pista de fútbol ,Metro: Lago.,,0,http://www.madrid.es/sites/v/index.jsp?vgnextchannel=bfa48ab43d6bb410VgnVCM100000171f5a0aRCRD&vgnextoid=89a00e5f50e5c210VgnVCM1000000b205a0aRCRD,casa de campo,0,MADRID,MADRID,28011,CASA DE CAMPO,MONCLOA-ARAVACA,438167,4474692,40.41867020566187,-3.730157679235435,CamposEstadiosFutbol
5869829,Instalación Deportiva Municipal Básica Casa Campo II Teleférico,,, Pista de fútbol,Pista de fútbol ,Metro: Lago.,,0,http://www.madrid.es/sites/v/index.jsp?vgnextchannel=bfa48ab43d6bb410VgnVCM100000171f5a0aRCRD&vgnextoid=492b2a3349e5c210VgnVCM1000000b205a0aRCRD,casa de campo,0,MADRID,MADRID,28011,CASA DE CAMPO,MONCLOA-ARAVACA,437527,4474968,40.42111772146607,-3.737716485663515,CamposEstadiosFutbol
5869871,Instalación Deportiva Municipal Básica Casa Campo III,,, Pista de fútbol,Pista de fútbol ,"Bus: 41 , 75.",,0,http://www.madrid.es/sites/v/index.jsp?vgnextchannel=bfa48ab43d6bb410VgnVCM100000171f5a0aRCRD&vgnextoid=c5e42a3349e5c210VgnVCM1000000b205a0aRCRD,casa campo,0,MADRID,MADRID,28008,CASA DE CAMPO,MONCLOA-ARAVACA,437758,4475580,40.42663911970955,-3.735065416489925,CamposEstadiosFutbol
5870126,Instalación Deportiva Municipal Básica Casa Campo IV,,, Pista de fútbol Pista de fútbol ,"Pista de fútbol ,Pista de fútbol ","Bus: 41 , 46 , 75.",,0,http://www.madrid.es/sites/v/index.jsp?vgnextchannel=bfa48ab43d6bb410VgnVCM100000171f5a0aRCRD&vgnextoid=4887e5021ce5c210VgnVCM1000000b205a0aRCRD,casa campo,0,MADRID,MADRID,28008,CASA DE CAMPO,MONCLOA-ARAVACA,437408,4476161,40.43184675866799,-3.739236682144013,CamposEstadiosFutbol
4541755,Instalación Deportiva Municipal Básica Casalarreina,,,Pista polideportiva,Pista polideportiva,"Metro: VicálvaroBus: 4 , 100 , 106 , 130",,0,http://www.madrid.es/sites/v/index.jsp?vgnextchannel=bfa48ab43d6bb410VgnVCM100000171f5a0aRCRD&vgnextoid=3d1b04fbe3961110VgnVCM1000000b205a0aRCRD,casalarreina,28,MADRID,MADRID,28032,AMBROZ,VICALVARO,448005,4473540,40.40897549865364,-3.6140942577626016,InstalacionesDeportivasBasicas
4548779,Instalación Deportiva Municipal Básica Casino de la Reina,,, Pista Polideportiva Pista de Baloncesto,Pista de baloncesto ,"Metro: Embajadores , Lavapies.Bus: 27 , 34 , 36 , 41 , 60 , 119 , 148 , C.Renfe: Embajadores",,0,http://www.madrid.es/sites/v/index.jsp?vgnextchannel=bfa48ab43d6bb410VgnVCM100000171f5a0aRCRD&vgnextoid=6739309c9bc91110VgnVCM2000000c205a0aRCRD,casino,3,MADRID,MADRID,28005,EMBAJADORES,CENTRO,440350,4473373,40.40695673994099,-3.7042921115064322,InstalacionesDeportivasBasicas
4579728,Instalación Deportiva Municipal Básica Castroserna,,, Pista de fútbol (de tierra) Tenis de mesa,Pista de fútbol ,"Metro: LuceroBus: 31 , 55 , 138",,0,http://www.madrid.es/sites/v/index.jsp?vgnextchannel=bfa48ab43d6bb410VgnVCM100000171f5a0aRCRD&vgnextoid=4ab5ec5543ea2110VgnVCM2000000c205a0aRCRD,castroserna,2,MADRID,MADRID,28047,LUCERO,LATINA,436407,4472704,40.40251081513204,-3.7494274010896342,CamposEstadiosFutbol
4584619,Instalación Deportiva Municipal Básica Cazorla,,, Pista de voleibol Pista de baloncesto,"Pista de voleibol ,Pista de baloncesto ","Bus: 24 , 102 , 103 , 111",,0,http://www.madrid.es/sites/v/index.jsp?vgnextchannel=bfa48ab43d6bb410VgnVCM100000171f5a0aRCRD&vgnextoid=6fad7348de2c2110VgnVCM1000000b205a0aRCRD,campillo de arenas,3,MADRID,MADRID,28053,ENTREVIAS,PUENTE DE VALLECAS,443532,4469895,40.375847231386665,-3.6664846579530597,InstalacionesDeportivasBasicas
4548963,Instalación Deportiva Municipal Básica Cementerio Civil,,, Pista de fútbol sala,Pista de fútbol ,"Metro: García NoblejasBus: 4 , 38 , 48 , 70 , 106 , 109.",,0,http://www.madrid.es/sites/v/index.jsp?vgnextchannel=bfa48ab43d6bb410VgnVCM100000171f5a0aRCRD&vgnextoid=fc00dedbe1d91110VgnVCM1000000b205a0aRCRD,daroca,101,MADRID,MADRID,28032,PUEBLO NUEVO,CIUDAD LINEAL,446389,4474821,40.42041280188907,-3.6332470504462986,CamposEstadiosFutbol
4556053,Instalación Deportiva Municipal Básica Cerro Blanco,,, Pista de baloncesto Pista de balonmano Pistas de petanca.,"Pista de baloncesto ,Pista de balonmano ,Pista de petanca ","Bus: 6, 60, 78, 81.",,0,http://www.madrid.es/sites/v/index.jsp?vgnextchannel=bfa48ab43d6bb410VgnVCM100000171f5a0aRCRD&vgnextoid=1cb10d17980e1110VgnVCM1000000b205a0aRCRD,albardin,7,MADRID,MADRID,28026,ZOFIO,USERA,439308,4470362,40.37975674670092,-3.716284060235098,InstalacionesDeportivasBasicas
4581453,Instalación Deportiva Municipal Básica Cerro Cabezuelos,,, Pista de fútbolVestuario,Pista de fútbolVestuario ,"Bus: 10 , 57 , 136 , 144 , 310 , 410",,0,http://www.madrid.es/sites/v/index.jsp?vgnextchannel=bfa48ab43d6bb410VgnVCM100000171f5a0aRCRD&vgnextoid=a2690aec7b7b2110VgnVCM1000000b205a0aRCRD,villalobos,46,MADRID,MADRID,28018,PALOMERAS SURESTE,PUENTE DE VALLECAS,444754,4470313,40.379694900594856,-3.6521267878318002,CamposEstadiosFutbol
5800623,Instalación Deportiva Municipal Básica Cerro Negro,,, Pista de baloncesto.  Pistas de bolos y petanca.  Pista de patinaje Tenis de mesa,"Pista de baloncesto ,Pista de bolos ,Pista de patinaje ","Metro: Puente de VallecasBus: 8 , 10 , 24 , 37 , 54 , 56 , 57 , 58 , 111 , 113 , 136 , 141 , 148.",,0,http://www.madrid.es/sites/v/index.jsp?vgnextchannel=bfa48ab43d6bb410VgnVCM100000171f5a0aRCRD&vgnextoid=965a3906b2f0b210VgnVCM2000000c205a0aRCRD,cerro negro,5,MADRID,MADRID,28007,ADELFAS,RETIRO,443115,4472207,40.396646655094365,-3.671603413540554,InstalacionesDeportivasBasicas
4528555,Instalación Deportiva Municipal Básica Circuito Natural Footing Retiro,,, Pista de Footing,Pista de footing ,"Metro: Retiro , AtochaBus: 1 , 2 , 9 , 15 , 19 , 20 , 26 , 28 , 51 , 52 , 74 , 146 , 202Renfe: Atocha",,0,http://www.madrid.es/sites/v/index.jsp?vgnextchannel=bfa48ab43d6bb410VgnVCM100000171f5a0aRCRD&vgnextoid=a2fb7dff2c201110VgnVCM1000000b205a0aRCRD,el retiro,0,MADRID,MADRID,28014,LOS JERONIMOS,RETIRO,441685,4474285,40.4152672609971,-3.6886435123781274,CircuitosFooting
95298,Instalación Deportiva Municipal Básica Circuito de Footing Casa de Campo,,,"Pista de footing con un recorrido de , Km.- Arranca desde el aparcamiento del Lago hasta el Pinar de las Siete Hermanas y vuelta por la antigua acequia hasta el punto de partida. No cruza ninguna vía de automóviles.- Contiene  estaciones distintas con aparatos para la realización de ejercicios.",Pista de footing ,"Metro: LagoBus: 31 , 33 , 36 , 39 , 65",,0,http://www.madrid.es/sites/v/index.jsp?vgnextchannel=bfa48ab43d6bb410VgnVCM100000171f5a0aRCRD&vgnextoid=5f584f36ff81c010VgnVCM1000000b205a0aRCRD,casa de campo,0,MADRID,MADRID,28011,CASA DE CAMPO,MONCLOA-ARAVACA,437923,4474891,40.42045376372811,-3.7330413471876964,CircuitosFooting
4556885,Instalación Deportiva Municipal Básica Ciudad Pegaso I,,, Pista polideportiva,Pista polideportiva,"Bus: 77 , 101 , 114 , 115 , 151",,0,http://www.madrid.es/sites/v/index.jsp?vgnextchannel=bfa48ab43d6bb410VgnVCM100000171f5a0aRCRD&vgnextoid=84865f45475e1110VgnVCM1000000b205a0aRCRD,uno,0,MADRID,MADRID,28022,REJAS,SAN BLAS-CANILLEJAS,449707,4478028,40.44951110145051,-3.594391876070514,InstalacionesDeportivasBasicas
4556948,Instalación Deportiva Municipal Básica Ciudad Pegaso II,,, Pistas de Petanca,Pista de petanca ,"Bus: 77 , 101 , 114 , 115 , 151",,0,http://www.madrid.es/sites/v/index.jsp?vgnextchannel=bfa48ab43d6bb410VgnVCM100000171f5a0aRCRD&vgnextoid=9b161816485e1110VgnVCM1000000b205a0aRCRD,seis,0,MADRID,MADRID,28022,REJAS,SAN BLAS-CANILLEJAS,449691,4477897,40.448330002444166,-3.5945701505778493,InstalacionesDeportivasBasicas
4557767,Instalación Deportiva Municipal Básica Ciudad Pegaso III,,, Pista polideportiva,Pista polideportiva,Bus: 77,,0,http://www.madrid.es/sites/v/index.jsp?vgnextchannel=bfa48ab43d6bb410VgnVCM100000171f5a0aRCRD&vgnextoid=296b65815aae1110VgnVCM1000000b205a0aRCRD,once,0,MADRID,MADRID,28022,REJAS,SAN BLAS-CANILLEJAS,449741,4477478,40.44455842139296,-3.593947323119205,InstalacionesDeportivasBasicas
4543802,Instalación Deportiva Municipal Básica Ciudad de Los Ángeles,,, Pistas de baloncesto Pista de patinaje,"Pista de baloncesto ,Pista de patinaje ","Metro: Villaverde Bajo CruceBus: 18 , 86 , 116Renfe: Puente Alcocer",,0,http://www.madrid.es/sites/v/index.jsp?vgnextchannel=bfa48ab43d6bb410VgnVCM100000171f5a0aRCRD&vgnextoid=f346588fd3471110VgnVCM1000000b205a0aRCRD,anoeta,0,MADRID,MADRID,28041,LOS ANGELES,VILLAVERDE,440710,4467155,40.35283994612291,-3.698205911976654,PistasPatinaje
4546507,Instalación Deportiva Municipal Básica Clara del Rey,,,Pista polideportiva con marcajes de fútbol-sala.,Pista polideportiva,"Metro: Alfonso XIIIBus: 9 , 40 , 43 , 72 , 73",,0,http://www.madrid.es/sites/v/index.jsp?vgnextchannel=bfa48ab43d6bb410VgnVCM100000171f5a0aRCRD&vgnextoid=66bb7626aad81110VgnVCM1000000b205a0aRCRD,clara del rey,61,MADRID,MADRID,28002,PROSPERIDAD,CHAMARTIN,443339,4477539,40.44656763308464,-3.668173275110258,CamposEstadiosFutbol
4556411,Instalación Deportiva Municipal Básica Club Deportivo Alzola,,, Pista de fútbol.,Pista de fútbol ,"Bus: 6 , 60 , 131.",,0,http://www.madrid.es/sites/v/index.jsp?vgnextchannel=bfa48ab43d6bb410VgnVCM100000171f5a0aRCRD&vgnextoid=25494bb2984e1110VgnVCM1000000b205a0aRCRD,segura,74,MADRID,MADRID,28041,ORCASITAS,USERA,439033,4469053,40.36794449938085,-3.7193980638250013,CamposEstadiosFutbol
6316901,Instalación Deportiva Municipal Básica Club de Petanca Esperanza de Canilllas,,, Pistas de bolos y petanca,Pista de bolos ,"Metro: EsperanzaBus: 120 , 122.",,0,http://www.madrid.es/sites/v/index.jsp?vgnextchannel=bfa48ab43d6bb410VgnVCM100000171f5a0aRCRD&vgnextoid=50be891a12165310VgnVCM2000000c205a0aRCRD,silvano,63,MADRID,MADRID,28043,CANILLAS,HORTALEZA,445503,4478957,40.45949540975727,-3.6427781663423575,InstalacionesDeportivasBasicas
11080945,Instalación Deportiva Municipal Básica Club de Petanca Peonias,,, Pistas de bolos y petanca,Pista de bolos ,"Metro: EsperanzaBus: 120 , 122.",,0,http://www.madrid.es/sites/v/index.jsp?vgnextchannel=bfa48ab43d6bb410VgnVCM100000171f5a0aRCRD&vgnextoid=47cd4c43e20de610VgnVCM2000001f4a900aRCRD,peonias,2,MADRID,MADRID,28042,PALOMAS,HORTALEZA,447603,4477959,40.45064086472342,-3.6179092385151757,InstalacionesDeportivasBasicas
5940483,Instalación Deportiva Municipal Básica Cocheras (Ciudad Lineal),,, Pista de fútbol,Pista de fútbol ,"Bus: 15 , 28 , 71 , 110 , 113 , 210.",,0,http://www.madrid.es/sites/v/index.jsp?vgnextchannel=bfa48ab43d6bb410VgnVCM100000171f5a0aRCRD&vgnextoid=0aca0c7f53bed210VgnVCM1000000b205a0aRCRD,san lamberto,0,MADRID,MADRID,28017,VENTAS,CIUDAD LINEAL,445018,4475056,40.42244010701552,-3.6494391609819576,CamposEstadiosFutbol
4528738,Instalación Deportiva Municipal Básica Cocheras (Retiro),,, Pistas de baloncesto  Pistas de patinaje (bajo el puente de Doctor Esquerdo) Tenis de mesa,"Pista de baloncesto ,Pista de patinaje ","Metro: Pacífico  Bus: 8 , 10 , 24 , 37 , 54 , 56 , 57 , 136 ,141  Bicicletas:    Servicio Bicimad, para consultar la estación más cercana, acceda al mapa de geolocalización de las estaciones",,0,http://www.madrid.es/sites/v/index.jsp?vgnextchannel=bfa48ab43d6bb410VgnVCM100000171f5a0aRCRD&vgnextoid=4405ad5b81301110VgnVCM1000000b205a0aRCRD,cocheras,1,MADRID,MADRID,28007,PACIFICO,RETIRO,442610,4472449,40.400673376887404,-3.676298173141196,InstalacionesDeportivasBasicas
4560062,Instalación Deportiva Municipal Básica Colombia,,, Pista de patinaje,Pista de patinaje ,"Metro: ColombiaBus: 7 , 11 , 40 , 52 , 87",,0,http://www.madrid.es/sites/v/index.jsp?vgnextchannel=bfa48ab43d6bb410VgnVCM100000171f5a0aRCRD&vgnextoid=af26de1d88402110VgnVCM1000000b205a0aRCRD,colombia,59,MADRID,MADRID,28016,HISPANOAMERICA,CHAMARTIN,443369,4478989,40.457759787152014,-3.669215880508611,PistasPatinaje
4543102,Instalación Deportiva Municipal Básica Colonia Euskalduna,,, Pistas de fútbol sala.,Pista de fútbol ,"Metro: Villaverde bajo CruceBus: 18 , 86 , 116Cercanías: Puente Alcocer",,0,http://www.madrid.es/sites/v/index.jsp?vgnextchannel=bfa48ab43d6bb410VgnVCM100000171f5a0aRCRD&vgnextoid=4c137874b8f61110VgnVCM1000000b205a0aRCRD,hermandad de donantes de sangre,7,MADRID,MADRID,28041,LOS ANGELES,VILLAVERDE,440690,4467556,40.35456935043359,-3.699754645665144,CamposEstadiosFutbol
4543975,Instalación Deportiva Municipal Básica Colonia Marconi,,, Pistas de tenis Frontones cortos Pista polideportiva Pista de patinaje,"Pistas de tenis ,Pista de patinaje ,Pista polideportiva",Bus: 79,,0,http://www.madrid.es/sites/v/index.jsp?vgnextchannel=bfa48ab43d6bb410VgnVCM100000171f5a0aRCRD&vgnextoid=2b538004f7471110VgnVCM1000000b205a0aRCRD,marconi,0,MADRID,MADRID,28021,SAN ANDRES,VILLAVERDE,441234,4465260,40.33393325295466,-3.6931253996834856,PistasTenisBadminton
4542504,Instalación Deportiva Municipal Básica Colonia San Cristóbal de Los Ángeles,,, Pistas Polideportivas.,,"Metro: San CristóbalBus: 59, 79",,0,http://www.madrid.es/sites/v/index.jsp?vgnextchannel=bfa48ab43d6bb410VgnVCM100000171f5a0aRCRD&vgnextoid=adab8e71e6e61110VgnVCM1000000b205a0aRCRD,rocafort,0,MADRID,MADRID,28021,SAN CRISTOBAL,VILLAVERDE,441530,4466052,40.34108883895775,-3.6897253636919576,CamposEstadiosFutbol
4581472,Instalación Deportiva Municipal Básica Colonia Sierra del Valle,,, Pista de balonmano Pista de baloncesto,"Pista de balonmano ,Pista de baloncesto ","Metro: PortazgoBus: 10 , 54 , 57 , 58 , 103 , 310",,0,http://www.madrid.es/sites/v/index.jsp?vgnextchannel=bfa48ab43d6bb410VgnVCM100000171f5a0aRCRD&vgnextoid=d1370aec7b7b2110VgnVCM1000000b205a0aRCRD,payaso fofo,7,MADRID,MADRID,28018,PALOMERAS BAJAS,PUENTE DE VALLECAS,444107,4471556,40.39084028688396,-3.6598693175789343,InstalacionesDeportivasBasicas
4583089,Instalación Deportiva Municipal Básica Colonia los Taxistas,,, Pistas de Balonmano Pistas de BaloncestoTenis de mesa,"Pista de balonmano ,Pistas de baloncesto",Bus: 141,,0,http://www.madrid.es/sites/v/index.jsp?vgnextchannel=bfa48ab43d6bb410VgnVCM100000171f5a0aRCRD&vgnextoid=21dbde6b48db2110VgnVCM1000000b205a0aRCRD,sierra de cuerda larga,0,MADRID,MADRID,28038,NUMANCIA,PUENTE DE VALLECAS,444378,4472533,40.39966893400019,-3.656750264445625,InstalacionesDeportivasBasicas
4579784,Instalación Deportiva Municipal Básica Concejal Gabriel Fernández (Parque Cuña Verde),,, Pista de fútbol  Pistas de fútbol  (césped artificial)  Pistas de polideportivas (baloncesto y ecuavoley) Tenis de mesa,"Pista de fútbol ,Pista de fútbol ,Pistas de polideportivas ","Metro: LagunaBus: 25 , 31 , 55 , 119 , 138.Renfe: Laguna",,0,http://www.madrid.es/sites/v/index.jsp?vgnextchannel=bfa48ab43d6bb410VgnVCM100000171f5a0aRCRD&vgnextoid=df6fb1d084ea2110VgnVCM2000000c205a0aRCRD,cuart de poblet,6,MADRID,MADRID,28047,LUCERO,LATINA,436305,4472321,40.39717971610274,-3.7518546091873803,CamposEstadiosFutbol
4548726,Instalación Deportiva Municipal Básica Conde Duque,,, Pista de fútbol sala  Pista de bolos y petanca  Pista de chito,"Pista de fútbol ,Pista de bolos ,Pistas de chito ","Metro: San Bernardo , Noviciado , Ventura Rodríguez.Bus: 1 , 2 , 21 , 44 , 47 , 74 , 133 , 202 , C.",,0,http://www.madrid.es/sites/v/index.jsp?vgnextchannel=bfa48ab43d6bb410VgnVCM100000171f5a0aRCRD&vgnextoid=42fed03df9c91110VgnVCM2000000c205a0aRCRD,santa cruz de marcenado,21,MADRID,MADRID,28015,UNIVERSIDAD,CENTRO,439742,4475605,40.42890457185098,-3.710390334447589,InstalacionesDeportivasBasicas
4548924,Instalación Deportiva Municipal Básica Condesa de Venadito,,, Pista de fútbol sala  Pista de baloncesto  Pista BMX Flatland  Pista Skate,"Pista de fútbol ,Pista de baloncesto ","Bus: 11 , 21 , 53 , 70 , 114 , 115 , 122 , 200.",,0,http://www.madrid.es/sites/v/index.jsp?vgnextchannel=bfa48ab43d6bb410VgnVCM100000171f5a0aRCRD&vgnextoid=000ebea9e0d91110VgnVCM1000000b205a0aRCRD,condesa de venadito,7,MADRID,MADRID,28027,SAN PASCUAL,CIUDAD LINEAL,444628,4477362,40.44505998039654,-3.652958563116748,CamposEstadiosFutbol
6345083,Instalación Deportiva Municipal Básica Cordel de Pavones,,,Frontón Pistas de baloncesto Pistas polideportivasbasket,"Pista de baloncesto ,Pista polideportiva","Metro: ValdebernardoBus: 8 , 71 , 130",,0,http://www.madrid.es/sites/v/index.jsp?vgnextchannel=bfa48ab43d6bb410VgnVCM100000171f5a0aRCRD&vgnextoid=2eace1fffb1f5310VgnVCM2000000c205a0aRCRD,cordel de pavones,11,MADRID,MADRID,28032,CASCO H.VICALVARO,VICALVARO,447617,4472536,40.39990644210208,-3.6185840558372244,InstalacionesDeportivasBasicas
6345642,Instalación Deportiva Municipal Básica Cordel de Pavones I,,, Pista de tenis  Pistas de pádel  Tenis de mesa,"Pistas de tenis ,Pistas de pádel ","Metro: VicálvaroBus: 4 , 100 , 106 , 130",,0,http://www.madrid.es/sites/v/index.jsp?vgnextchannel=bfa48ab43d6bb410VgnVCM100000171f5a0aRCRD&vgnextoid=b541c4c4222f5310VgnVCM2000000c205a0aRCRD,cordel de pavones,9,MADRID,MADRID,28032,AMBROZ,VICALVARO,448471,4473573,40.40930182229157,-3.608605091516184,CamposEstadiosFutbol
5935266,Instalación Deportiva Municipal Básica Corregidor Diego de Valderrábano,,, Pistas de baloncestoPista de fútbol sala.,Pistas de baloncesto,"Metro: Estrella.Bus: 8 , 20 , 30 , 32 , 113.",,0,http://www.madrid.es/sites/v/index.jsp?vgnextchannel=bfa48ab43d6bb410VgnVCM100000171f5a0aRCRD&vgnextoid=4f796e6292bdd210VgnVCM1000000b205a0aRCRD,corregidor diego de valderrabano,24,MADRID,MADRID,28030,MEDIA LEGUA,MORATALAZ,444207,4473615,40.40940474947577,-3.6588602502598873,CamposEstadiosFutbol
5785030,Instalación Deportiva Municipal Básica Cuevas de Almanzora,,, Pista de fútbol sala.,Pista de fútbol ,"Metro: ManoterasBus: 7 , 29 , 129",,0,http://www.madrid.es/sites/v/index.jsp?vgnextchannel=bfa48ab43d6bb410VgnVCM100000171f5a0aRCRD&vgnextoid=467ce76a0948a210VgnVCM2000000c205a0aRCRD,mojacar,2,MADRID,MADRID,28033,APOSTOL SANTIAGO,HORTALEZA,444216,4481177,40.47940888739177,-3.658140197005035,InstalacionesDeportivasBasicas
4669898,Instalación Deportiva Municipal Básica Cárcavas Oeste I,,, Pista de baloncesto.,Pista de baloncesto ,Bus: 87,,0,http://www.madrid.es/sites/v/index.jsp?vgnextchannel=bfa48ab43d6bb410VgnVCM100000171f5a0aRCRD&vgnextoid=88018a43c67c5110VgnVCM1000000b205a0aRCRD,carmen rico godoy,40,MADRID,MADRID,28055,VALDEFUENTES,HORTALEZA,446141,4481243,40.48013725057699,-3.635430388203537,CamposEstadiosFutbol
6335547,Instalación Deportiva Municipal Básica Cárcavas Oeste II,,, Pista polideportiva,Pista polideportiva,Bus: 87,,0,http://www.madrid.es/sites/v/index.jsp?vgnextchannel=bfa48ab43d6bb410VgnVCM100000171f5a0aRCRD&vgnextoid=c65b0f74158c5310VgnVCM1000000b205a0aRCRD,san andres de rabanedo,1,MADRID,MADRID,28055,VALDEFUENTES,HORTALEZA,446216,4481325,40.48087402947953,-3.6345699273053054,CamposEstadiosFutbol
4555783,Instalación Deportiva Municipal Básica David González Rubio,,, Pistas de fútbol Pista polideportiva Pista de balonmano,"Pista de fútbol ,Pista de balonmano ,Pista polideportiva","Bus: 81 , 121",,0,http://www.madrid.es/sites/v/index.jsp?vgnextchannel=bfa48ab43d6bb410VgnVCM100000171f5a0aRCRD&vgnextoid=948631437ffd1110VgnVCM1000000b205a0aRCRD,doctor tolosa latour,0,MADRID,MADRID,28041,ORCASUR,USERA,440495,4469851,40.375239149670676,-3.702253695777978,CamposEstadiosFutbol
4566204,Instalación Deportiva Municipal Básica Dehesa del Príncipe,,, Pista de fútbol sala Pistas de petanca,"Pista de fútbol ,Pista de petanca ","Bus: 39 , 139Metro: Cuatro VientosRenfe: Cuatro Vientos",,0,http://www.madrid.es/sites/v/index.jsp?vgnextchannel=bfa48ab43d6bb410VgnVCM100000171f5a0aRCRD&vgnextoid=f06fd8cbe5d22110VgnVCM1000000b205a0aRCRD,arqueros,29,MADRID,MADRID,28024,CAMPAMENTO,LATINA,432598,4470356,40.379186090420234,-3.7953243919503508,CamposEstadiosFutbol
4554593,Instalación Deportiva Municipal Básica Diana,,, Pistas de baloncesto Pista de fútbol - sala,"Pista de baloncesto ,Pista de fútbol ","Metro:  Alameda de OsunaBus: 101 , 105 , 112 , 114 , 115 , 151",,0,http://www.madrid.es/sites/v/index.jsp?vgnextchannel=bfa48ab43d6bb410VgnVCM100000171f5a0aRCRD&vgnextoid=c232ee4851bd1110VgnVCM1000000b205a0aRCRD,galeon,25,MADRID,MADRID,28042,ALAMEDA DE OSUNA,BARAJAS,450434,4478671,40.45721870340052,-3.5845999549053547,InstalacionesDeportivasBasicas
4549195,Instalación Deportiva Municipal Básica Doctor Cirajas,,, Pistas de baloncesto.,Pista de baloncesto ,"Metro: Ciudad Lineal , Pueblo NuevoBus: 4 , 38 , 48 , 70 , 105 , 109 , 109",,0,http://www.madrid.es/sites/v/index.jsp?vgnextchannel=bfa48ab43d6bb410VgnVCM100000171f5a0aRCRD&vgnextoid=7eb59c02f6d91110VgnVCM1000000b205a0aRCRD,doctor cirajas,3,MADRID,MADRID,28017,PUEBLO NUEVO,CIUDAD LINEAL,446044,4476500,40.435515856536526,-3.6374563613179753,InstalacionesDeportivasBasicas
4543938,Instalación Deportiva Municipal Básica Doctor Vallejo-Nájera,,, Pista de Baloncesto,Pista de baloncesto ,"Metro: Acacias , Pirámides.Bus: 34 , 36 , 116 , 118 , 119.Renfe: Embajadores.",j,0,http://www.madrid.es/sites/v/index.jsp?vgnextchannel=bfa48ab43d6bb410VgnVCM100000171f5a0aRCRD&vgnextoid=c9f1e55ea6471110VgnVCM1000000b205a0aRCRD,gasometro,32,MADRID,MADRID,28005,ACACIAS,ARGANZUELA,439917,4472655,40.40233909331515,-3.7080621422210975,InstalacionesDeportivasBasicas
4546560,Instalación Deportiva Municipal Básica Drácena,,,Pista de hockey sobre patines.,Pista de hockey ,"Bus: 29 , 52 , 70 , 107.",,0,http://www.madrid.es/sites/v/index.jsp?vgnextchannel=bfa48ab43d6bb410VgnVCM100000171f5a0aRCRD&vgnextoid=65c95f362cd81110VgnVCM1000000b205a0aRCRD,dracena,42,MADRID,MADRID,28016,NUEVA ESPAÑA,CHAMARTIN,443301,4479502,40.46425775938073,-3.6687849660111347,CamposEstadiosFutbol
5716963,Instalación Deportiva Municipal Básica Duque de Sevilla,,, Pista de patinaje.,Pista de patinaje ,"Metro: Cruz del RayoBus: 9 , 29 , 52 , 73 , C.",,0,http://www.madrid.es/sites/v/index.jsp?vgnextchannel=bfa48ab43d6bb410VgnVCM100000171f5a0aRCRD&vgnextoid=bfd8516239129210VgnVCM1000000b205a0aRCRD,duque de sevilla,1,MADRID,MADRID,28002,EL VISO,CHAMARTIN,442516,4477209,40.44166603700321,-3.6791142497783973,PistasPatinaje
4547580,Instalación Deportiva Municipal Básica Echegaray,,, Pistas de baloncestoPista de fútbol sala,Pistas de baloncesto,"Metro: PavonesBus: 8 , 20 , 30 , 32 , 71 , 100 , 140 , 142 , 144.",,0,http://www.madrid.es/sites/v/index.jsp?vgnextchannel=bfa48ab43d6bb410VgnVCM100000171f5a0aRCRD&vgnextoid=1986f30a37391110VgnVCM2000000c205a0aRCRD,encomienda de palacios,324,MADRID,MADRID,28030,PAVONES,MORATALAZ,446173,4472246,40.397201660302876,-3.63557478412475,CamposEstadiosFutbol
4584543,Instalación Deportiva Municipal Básica El Bosco,,, Pista de balonmano pistas de baloncesto,"Pista de balonmano ,Pista de baloncesto ","Bus: 63 , 141 , 143",,0,http://www.madrid.es/sites/v/index.jsp?vgnextchannel=bfa48ab43d6bb410VgnVCM100000171f5a0aRCRD&vgnextoid=39a4ed32dd2c2110VgnVCM1000000b205a0aRCRD,el bosco,14,MADRID,MADRID,28038,NUMANCIA,PUENTE DE VALLECAS,444833,4472731,40.40148296368549,-3.651406031292048,InstalacionesDeportivasBasicas
4540585,Instalación Deportiva Municipal Básica El Bosque,,, Pista de fútbol sala,Pista de fútbol ,"Bus: 7 , 29 , 70 , 107",,0,http://www.madrid.es/sites/v/index.jsp?vgnextchannel=bfa48ab43d6bb410VgnVCM100000171f5a0aRCRD&vgnextoid=fe125696ed551110VgnVCM1000000b205a0aRCRD,golmayo,17,MADRID,MADRID,28033,PINAR DEL REY,HORTALEZA,443890,4479818,40.46714774021119,-3.6618563692082393,InstalacionesDeportivasBasicas
5785236,Instalación Deportiva Municipal Básica El Capricho I,,, Pista de fútbol (césped artificial)   Pista de fútbol ,"Pista de fútbol ,Pista de fútbol ","Metro: El Capricho.Bus: 101 , 105 , 151.",,0,http://www.madrid.es/sites/v/index.jsp?vgnextchannel=bfa48ab43d6bb410VgnVCM100000171f5a0aRCRD&vgnextoid=57308be7ed48a210VgnVCM2000000c205a0aRCRD,alameda de osuna,48,MADRID,MADRID,28042,ALAMEDA DE OSUNA,BARAJAS,449179,4478356,40.45430519267116,-3.599375619694702,CamposEstadiosFutbol
10291968,Instalación Deportiva Municipal Básica El Capricho II,,,Pista de baloncesto Pista polideportiva (con marcajes de fútbol sala y balonmano Pista de voleibol,"Pista de baloncesto ,Pista de voleibol ,Pista polideportiva",,,0,http://www.madrid.es/sites/v/index.jsp?vgnextchannel=bfa48ab43d6bb410VgnVCM100000171f5a0aRCRD&vgnextoid=e154854e492da510VgnVCM2000001f4a900aRCRD,alameda de osuna,46,MADRID,MADRID,28042,ALAMEDA DE OSUNA,BARAJAS,449096,4478349,40.45424612279451,-3.600342165562562,InstalacionesDeportivasBasicas
4541995,Instalación Deportiva Municipal Básica El Cruce,,, Pistas polideportivas,Pista polideportiva,"Metro: Villaverde Bajo CruceBus: 22 , 59 , 79 , 130",,0,http://www.madrid.es/sites/v/index.jsp?vgnextchannel=bfa48ab43d6bb410VgnVCM100000171f5a0aRCRD&vgnextoid=6d84cf0980a61110VgnVCM1000000b205a0aRCRD,santiago amon,0,MADRID,MADRID,28021,LOS ANGELES,VILLAVERDE,441073,4466719,40.348947003587675,-3.693879611293337,CamposEstadiosFutbol
4544044,Instalación Deportiva Municipal Básica El Espinillo I,,, Pista de patinaje.,Pista de patinaje ,"Metro: Ciudad de los ÁngelesBus: 18 , 22 , 23 , 59 , 79 , 85 , 86 , 123",,0,http://www.madrid.es/sites/v/index.jsp?vgnextchannel=bfa48ab43d6bb410VgnVCM100000171f5a0aRCRD&vgnextoid=4b0169ef89471110VgnVCM1000000b205a0aRCRD,tertulia,7,MADRID,MADRID,28041,LOS ROSALES,VILLAVERDE,441289,4468328,40.361575517254266,-3.6927606788274527,PistasPatinaje
5695077,Instalación Deportiva Municipal Básica El Espinillo III,,, Pista de fútbol sala,Pista de fútbol ,"Metro: Ciudad de los ÁngelesBus: 18 , 22 , 23 , 59 , 79 , 85 , 86 , 123",,0,http://www.madrid.es/sites/v/index.jsp?vgnextchannel=bfa48ab43d6bb410VgnVCM100000171f5a0aRCRD&vgnextoid=c81844c95c9b8210VgnVCM2000000c205a0aRCRD,unanimidad,0,MADRID,MADRID,28041,LOS ROSALES,VILLAVERDE,441245,4468328,40.36157241219842,-3.6932788501569522,CamposEstadiosFutbol
4527600,Instalación Deportiva Municipal Básica El Parque,,, Pista polideportiva,Pista polideportiva,"Metro: Príncipe PíoBus: 25 , 33 , 39 , 41 , 46 , 75 , 138 , C.Renfe: Príncipe Pío",,0,http://www.madrid.es/sites/v/index.jsp?vgnextchannel=bfa48ab43d6bb410VgnVCM100000171f5a0aRCRD&vgnextoid=6de7849491df0110VgnVCM1000000b205a0aRCRD,comandante fortea,25,MADRID,MADRID,28008,CASA DE CAMPO,MONCLOA-ARAVACA,438042,4475494,40.42589471749026,-3.7316975783571404,InstalacionesDeportivasBasicas
4541768,Instalación Deportiva Municipal Básica El Pedernoso - Parque de Villa Rosa - Paco Caño,,, Pistas de baloncesto  Tenis de mesa,Pista de baloncesto ,"Metro: CanillasBus: 73 , 104 , 112 , 120",,0,http://www.madrid.es/sites/v/index.jsp?vgnextchannel=bfa48ab43d6bb410VgnVCM100000171f5a0aRCRD&vgnextoid=5ce8dec5c4961110VgnVCM1000000b205a0aRCRD,pedroñeras,42,MADRID,MADRID,28043,CANILLAS,HORTALEZA,446512,4479812,40.46725432234968,-3.6309383657037775,InstalacionesDeportivasBasicas
4527918,Instalación Deportiva Municipal Básica El Plantío,,, Pista de baloncesto,Pista de baloncesto ,Bus: 162,,0,http://www.madrid.es/sites/v/index.jsp?vgnextchannel=bfa48ab43d6bb410VgnVCM100000171f5a0aRCRD&vgnextoid=0dbff9ed8ddf0110VgnVCM1000000b205a0aRCRD,rafael villa,0,MADRID,MADRID,28023,EL PLANTIO,MONCLOA-ARAVACA,430132,4480655,40.47175814207694,-3.8255057822510574,InstalacionesDeportivasBasicas
4555915,Instalación Deportiva Municipal Básica El Torero,,, Frontón Pista de baloncesto Pista de patinaje,"Pista de baloncesto ,Pista de patinaje ","Metro: UseraBus: 23 , 55 , 60",,0,http://www.madrid.es/sites/v/index.jsp?vgnextchannel=bfa48ab43d6bb410VgnVCM100000171f5a0aRCRD&vgnextoid=13562784040e1110VgnVCM1000000b205a0aRCRD,torero,10,MADRID,MADRID,28026,MOSCARDO,USERA,440165,4471745,40.39227761286618,-3.706318951771014,PistasPatinaje
4548146,Instalación Deportiva Municipal Básica El Vandel,,, Pista de fútbol  tierra Pista de baloncesto Pista de fútbol sala,"Pista de fútbol ,Pista de baloncesto ,Pista de fútbol ","Bus: 30 , 100 , 140",,0,http://www.madrid.es/sites/v/index.jsp?vgnextchannel=bfa48ab43d6bb410VgnVCM100000171f5a0aRCRD&vgnextoid=18feabc170891110VgnVCM2000000c205a0aRCRD,florencio cano cristobal,9,MADRID,MADRID,28030,MARROQUINA,MORATALAZ,446353,4473492,40.41031893017073,-3.6322802730041026,CamposEstadiosFutbol
4557740,Instalación Deportiva Municipal Básica Electra,,, Pista de baloncesto  Pista polideportiva  Pistas de chito  Tenis de mesa,"Pista de baloncesto ,Pistas de chito ,Pista polideportiva","Metro: Torre AriasBus: 28 , 77, 105 , 140 , 153",,0,http://www.madrid.es/sites/v/index.jsp?vgnextchannel=bfa48ab43d6bb410VgnVCM100000171f5a0aRCRD&vgnextoid=200b97fcc9ae1110VgnVCM1000000b205a0aRCRD,cronos,65,MADRID,MADRID,28037,SIMANCAS,SAN BLAS-CANILLEJAS,447620,4477128,40.44127421398117,-3.6189277132249833,CamposEstadiosFutbol
4629031,Instalación Deportiva Municipal Básica Eros,,, Pista de Baloncesto,Pista de baloncesto ,"Metro: Méndez ÁlvaroBus: 8 , 102 , 113 , 148 , 152Renfe: Méndez Álvaro",,0,http://www.madrid.es/sites/v/index.jsp?vgnextchannel=bfa48ab43d6bb410VgnVCM100000171f5a0aRCRD&vgnextoid=bcceaba3b9194110VgnVCM1000000b205a0aRCRD,eros,6,MADRID,MADRID,28045,LEGAZPI,ARGANZUELA,442278,4471658,40.39352590492843,-3.6801309337036407,InstalacionesDeportivasBasicas
4557463,Instalación Deportiva Municipal Básica Esfinge,,, Pista de baloncesto Pista de fútbol sala Pistas de petanca Pistas de chito,"Pista de baloncesto ,Pista de fútbol ,Pista de petanca ,Pistas de chito ","Metro: Torre AriasBus: 28 , 48 , 140 , 153",,0,http://www.madrid.es/sites/v/index.jsp?vgnextchannel=bfa48ab43d6bb410VgnVCM100000171f5a0aRCRD&vgnextoid=0e23950eb4ae1110VgnVCM1000000b205a0aRCRD,esfinge,60,MADRID,MADRID,28022,CANILLEJAS,SAN BLAS-CANILLEJAS,448470,4477235,40.44229135833031,-3.608914308760063,CamposEstadiosFutbol
4540393,Instalación Deportiva Municipal Básica Esperanza I - Club Virgen de la Esperanza,,, Pista de fútbol (de césped artificial con  marcajes de F. Pista de fútbol  (de césped artificial).,"Pista de fútbol ,Pista de fútbol ","Metro: EsperanzaBus: 120 , 122.",,0,http://www.madrid.es/sites/v/index.jsp?vgnextchannel=bfa48ab43d6bb410VgnVCM100000171f5a0aRCRD&vgnextoid=414fdc7deb551110VgnVCM1000000b205a0aRCRD,silvano,65,MADRID,MADRID,28043,CANILLAS,HORTALEZA,445541,4479006,40.45993986921884,-3.642319354553547,CamposEstadiosFutbol
5718683,Instalación Deportiva Municipal Básica Esperanza II,,, Pista polideportiva,Pista polideportiva,"Metro: EsperanzaBus: 120 , 122.",,0,http://www.madrid.es/sites/v/index.jsp?vgnextchannel=bfa48ab43d6bb410VgnVCM100000171f5a0aRCRD&vgnextoid=b665f7513a629210VgnVCM1000000b205a0aRCRD,silvano,61,MADRID,MADRID,28043,CANILLAS,HORTALEZA,445474,4478911,40.459082202600115,-3.643098932325283,InstalacionesDeportivasBasicas
4528794,Instalación Deportiva Municipal Básica Estanque de las Tormentas,,, Pista de fútbol . Pistas de fútbol sala.,"Pista de fútbol ,Pista de fútbol ","Bus: 160 , 161 , I.",,0,http://www.madrid.es/sites/v/index.jsp?vgnextchannel=bfa48ab43d6bb410VgnVCM100000171f5a0aRCRD&vgnextoid=e33d50aa44301110VgnVCM1000000b205a0aRCRD,arroyo de pozuelo,0,MADRID,MADRID,28023,ARAVACA,MONCLOA-ARAVACA,433691,4478442,40.45211512813871,-3.7832937390386396,CamposEstadiosFutbol
5695803,Instalación Deportiva Municipal Básica Estefanita,,, Pista de patinaje.,Pista de patinaje ,"Bus: 85 , 713.",,0,http://www.madrid.es/sites/v/index.jsp?vgnextchannel=bfa48ab43d6bb410VgnVCM100000171f5a0aRCRD&vgnextoid=cc6a9ca899ab8210VgnVCM2000000c205a0aRCRD,estefanita,7,MADRID,MADRID,28021,BUTARQUE,VILLAVERDE,442655,4466342,40.345660999492566,-3.6752185536053323,PistasPatinaje
4542884,Instalación Deportiva Municipal Básica Estíbaliz,,, Frontón corto,,"Metro: Pinar del ReyBus: 9 , 72 , 87 , 120 , 125.",,0,http://www.madrid.es/sites/v/index.jsp?vgnextchannel=bfa48ab43d6bb410VgnVCM100000171f5a0aRCRD&vgnextoid=7faee49123f61110VgnVCM1000000b205a0aRCRD,estibaliz,30,MADRID,MADRID,28043,PINAR DEL REY,HORTALEZA,444981,4480073,40.469514561623285,-3.6490195041524114,Frontones
4557842,Instalación Deportiva Municipal Básica Euterpe,,, Pista de Fútbol (césped artificial),Pista de fútbol ,Bus: 77,,0,http://www.madrid.es/sites/v/index.jsp?vgnextchannel=bfa48ab43d6bb410VgnVCM100000171f5a0aRCRD&vgnextoid=b5e475944bae1110VgnVCM1000000b205a0aRCRD,euterpe,1,MADRID,MADRID,28022,REJAS,SAN BLAS-CANILLEJAS,449949,4477803,40.44749880003797,-3.5915203945028886,CamposEstadiosFutbol
36401,Instalación Deportiva Municipal Básica Eva Duarte,,, Pistas de bolos y petanca  Pista de chito  Pistas de pádel  Pistas de polideportivas  Tenis de mesa,"Pista de bolos ,Pistas de chito ,Pistas de pádel ,Pistas de polideportivas ","Metro: Manuel Becerra , Ventas.Bus: 1 , 12 , 21 , 38 , 43 , 53 , 56 , 74 , 106 , 110 , 143 , 146 , 156 , 210 , C",,0,http://www.madrid.es/sites/v/index.jsp?vgnextchannel=bfa48ab43d6bb410VgnVCM100000171f5a0aRCRD&vgnextoid=015e0a47f441f010VgnVCM2000000c205a0aRCRD,doctor gomez ulla,9,MADRID,MADRID,28028,GUINDALERA,SALAMANCA,443342,4475696,40.42997423940213,-3.667961859746943,CamposEstadiosFutbol
4556684,Instalación Deportiva Municipal Básica Evangelios-Almendrales,,, Pista polideportiva,Pista polideportiva,"Metro: Almendrales.Bus: 6 , 18 , 22 , 23 , 59 , 76 , 78 , 79 , 85 , 86 , 123.",,0,http://www.madrid.es/sites/v/index.jsp?vgnextchannel=bfa48ab43d6bb410VgnVCM100000171f5a0aRCRD&vgnextoid=362bfcab645e1110VgnVCM1000000b205a0aRCRD,evangelios,4,MADRID,MADRID,28026,ALMENDRALES,USERA,440644,4470740,40.383258382877266,-3.7005815819050203,InstalacionesDeportivasBasicas
6310191,Instalación Deportiva Municipal Básica Fermín Caballero,,, Pistas de petanca Pistas de chito Pista de Patinaje,"Pista de petanca ,Pistas de chito ,Pista de patinaje ","Metro: Avda. de la IlustraciónBus: 127, 67",,0,http://www.madrid.es/sites/v/index.jsp?vgnextchannel=bfa48ab43d6bb410VgnVCM100000171f5a0aRCRD&vgnextoid=d7fc3b3737d35310VgnVCM2000000c205a0aRCRD,fermin caballero,88,MADRID,MADRID,28035,PEÑA GRANDE,FUENCARRAL-EL PARDO,439154,4481419,40.47935162025493,-3.719158405265364,InstalacionesDeportivasBasicas
4582808,Instalación Deportiva Municipal Básica Francisco Laguna,,,Pista de baloncesto  Pistas de fútbol sala  Tenis de mesa,"Pista de baloncesto ,Pista de fútbol ","Bus: 24 , 111 , 310 , 410",,0,http://www.madrid.es/sites/v/index.jsp?vgnextchannel=bfa48ab43d6bb410VgnVCM100000171f5a0aRCRD&vgnextoid=8a5ec69590db2110VgnVCM1000000b205a0aRCRD,francisco laguna,26,MADRID,MADRID,28053,SAN DIEGO,PUENTE DE VALLECAS,443249,4471525,40.39051190105737,-3.669975407440883,InstalacionesDeportivasBasicas
4555896,Instalación Deportiva Municipal Básica Frontón Orcasitas,,, Frontón,,"Bus: 6 , 60 , 78 , 81 , 116 , 121 , 131Renfe: Orcasitas",,0,http://www.madrid.es/sites/v/index.jsp?vgnextchannel=bfa48ab43d6bb410VgnVCM100000171f5a0aRCRD&vgnextoid=e4e92784040e1110VgnVCM1000000b205a0aRCRD,rafaela ybarra,103,MADRID,MADRID,28041,ORCASITAS,USERA,439644,4469348,40.37064655641207,-3.7122298796847235,Frontones
5922619,Instalación Deportiva Municipal Básica Frontón Polideportivo San Fermín,,, Frontón,,"Metro: Hospital Doce de OctubreBus: 18 , 22 , 23 , 59 , 76 , 78 , 79 , 81 , 85 , 86 , 121 , 123.",,0,http://www.madrid.es/sites/v/index.jsp?vgnextchannel=bfa48ab43d6bb410VgnVCM100000171f5a0aRCRD&vgnextoid=bf3908570f39d210VgnVCM2000000c205a0aRCRD,estafeta,2,MADRID,MADRID,28041,SAN FERMIN,USERA,441316,4469751,40.374396615335975,-3.6925739180872332,Frontones
4557031,Instalación Deportiva Municipal Básica Frontón San Fermín,,, Frontón,,"Bus: 23 , 78 , 123",,0,http://www.madrid.es/sites/v/index.jsp?vgnextchannel=bfa48ab43d6bb410VgnVCM100000171f5a0aRCRD&vgnextoid=bd6a8d498a5e1110VgnVCM1000000b205a0aRCRD,perales,136,MADRID,MADRID,28041,SAN FERMIN,USERA,441765,4469249,40.36990586456809,-3.6872392651660495,Frontones
4548581,Instalación Deportiva Municipal Básica Frontón Tudelillas,,,Un frontón,,"Bus: 44 , 127 , 132",,0,http://www.madrid.es/sites/v/index.jsp?vgnextchannel=bfa48ab43d6bb410VgnVCM100000171f5a0aRCRD&vgnextoid=86121b40e9891110VgnVCM2000000c205a0aRCRD,pablo iglesias,62,MADRID,MADRID,28039,BELLAS VISTAS,TETUAN,439709,4478135,40.451690390542296,-3.7110210478690155,Frontones
11353992,Instalación Deportiva Municipal Básica Fuente Espina,,,pista de patinaje.,Pista de patinaje ,"Bus: 58 , 63 , 145Renfe: Santa Eugenia",,0,http://www.madrid.es/sites/v/index.jsp?vgnextchannel=bfa48ab43d6bb410VgnVCM100000171f5a0aRCRD&vgnextoid=1cf9f533a3468710VgnVCM1000001d4a900aRCRD,fuentespina,29,MADRID,MADRID,28031,SANTA EUGENIA,VILLA DE VALLECAS,448524,4470030,40.379273217545474,-3.6064126945492285,InstalacionesDeportivasBasicas
4580220,Instalación Deportiva Municipal Básica Fuente de Lima,,, Pista de Baloncesto,Pista de baloncesto ,"Metro: Aviación EspañolaBus: 17 , 34 , 39 , 139Renfe: Las Águilas",,0,http://www.madrid.es/sites/v/index.jsp?vgnextchannel=bfa48ab43d6bb410VgnVCM100000171f5a0aRCRD&vgnextoid=4756f9a1382b2110VgnVCM1000000b205a0aRCRD,fuente de lima,24,MADRID,MADRID,28024,LAS AGUILAS,LATINA,433743,4470720,40.3825571125298,-3.7818748425273556,InstalacionesDeportivasBasicas
4564155,Instalación Deportiva Municipal Básica Fuerte de Navidad,,, Pista de baloncesto,Pista de baloncesto ,"Bus: 17, 117 , 139 , 155Renfe: Fanjul.",,0,http://www.madrid.es/sites/v/index.jsp?vgnextchannel=bfa48ab43d6bb410VgnVCM100000171f5a0aRCRD&vgnextoid=70935ad152322110VgnVCM1000000b205a0aRCRD,fuerte de navidad,0,MADRID,MADRID,28044,LAS AGUILAS,LATINA,435179,4470545,40.38109378379431,-3.7649408263985067,InstalacionesDeportivasBasicas
4547673,Instalación Deportiva Municipal Básica Félix Rodríguez de la Fuente,,, Pista de fútbol sala,Pista de fútbol ,"Metro: EstrellaBus: 20 , 30 , 32 , 71 , 113.",,0,http://www.madrid.es/sites/v/index.jsp?vgnextchannel=bfa48ab43d6bb410VgnVCM100000171f5a0aRCRD&vgnextoid=94fdf76721491110VgnVCM2000000c205a0aRCRD,felix rodriguez de la fuente,3,MADRID,MADRID,28030,MEDIA LEGUA,MORATALAZ,444199,4474201,40.414683229860835,-3.6590060269964693,CamposEstadiosFutbol
4556047,Instalación Deportiva Municipal Básica Galeón,,, Pistas de baloncesto,Pista de baloncesto ,"Metro:  Alameda de OsunaBus: 101 , 105 , 112 , 114 , 115 , 151",,0,http://www.madrid.es/sites/v/index.jsp?vgnextchannel=bfa48ab43d6bb410VgnVCM100000171f5a0aRCRD&vgnextoid=7aea0d17980e1110VgnVCM1000000b205a0aRCRD,galeon,3,MADRID,MADRID,28042,ALAMEDA DE OSUNA,BARAJAS,450323,4478527,40.45591483433643,-3.585897770294804,InstalacionesDeportivasBasicas
4579734,Instalación Deportiva Municipal Básica Garrovillas,,, Pista de patinaje Pistas de petanca Pista de chito,"Pista de patinaje ,Pista de petanca ,Pistas de chito ","Bus: 17 , 34 , 39 , 117 , 139Renfe: Las Águilas",,0,http://www.madrid.es/sites/v/index.jsp?vgnextchannel=bfa48ab43d6bb410VgnVCM100000171f5a0aRCRD&vgnextoid=74cc19b4c3ea2110VgnVCM2000000c205a0aRCRD,garrovillas,0,MADRID,MADRID,28044,LAS AGUILAS,LATINA,433980,4470447,40.38011667026133,-3.7790546404419656,PistasPatinaje
4580463,Instalación Deportiva Municipal Básica General Millán Astray,,, Pista de Fútbol Sala,Pista de fútbol ,"Bus: 17 , 34 , 39 , 117 , 139 , 155.Renfe: Fanjul.",,0,http://www.madrid.es/sites/v/index.jsp?vgnextchannel=bfa48ab43d6bb410VgnVCM100000171f5a0aRCRD&vgnextoid=0ea55ca87e2b2110VgnVCM1000000b205a0aRCRD,maestra justa freire,2,MADRID,MADRID,28044,LAS AGUILAS,LATINA,434770,4470182,40.37967979685691,-3.7684385984894484,CamposEstadiosFutbol
4542768,Instalación Deportiva Municipal Básica Glorieta Avenida San Luis,,, pista polideportiva,Pista polideportiva,"Bus: 107 , 125 , 172",,0,http://www.madrid.es/sites/v/index.jsp?vgnextchannel=bfa48ab43d6bb410VgnVCM100000171f5a0aRCRD&vgnextoid=a666553e30f61110VgnVCM1000000b205a0aRCRD,añastro,78,MADRID,MADRID,28033,ATALAYA,CIUDAD LINEAL,443662,4479823,40.4671739676516,-3.6645674105696378,PistasPatinaje
10915711,Instalación Deportiva Municipal Básica Glorieta de Segovia,,, Tenis de mesa,,"Bus: 25 , 31 , 33 , 36 , 39 , 41 , 50 , 65 , 138 , C",,0,http://www.madrid.es/sites/v/index.jsp?vgnextchannel=bfa48ab43d6bb410VgnVCM100000171f5a0aRCRD&vgnextoid=eff43e641a099610VgnVCM1000001d4a900aRCRD,ciudad de plasencia,0,MADRID,MADRID,28005,PALACIO,CENTRO,439375,4473782,40.41246022343046,-3.714538784977571,InstalacionesDeportivasBasicas
6331073,Instalación Deportiva Municipal Básica Gran Vía de Hortaleza,,, Pista de patinaje y pista de calva,"Pista de patinaje ,Pista de calva ",Bus: 87,,0,http://www.madrid.es/sites/v/index.jsp?vgnextchannel=bfa48ab43d6bb410VgnVCM100000171f5a0aRCRD&vgnextoid=4888d5397f9a5310VgnVCM2000000c205a0aRCRD,gran via de hortaleza,1,MADRID,MADRID,28033,PINAR DEL REY,HORTALEZA,444075,4479556,40.4647876018932,-3.6596724032712897,PistasPatinaje
4556640,Instalación Deportiva Municipal Básica Guadalajara,,, Pista de fútbol (césped artificial) Pistas de fútbol  (césped artificial),"Pista de fútbol ,Pista de fútbol ","Bus:  4 , 70 , 106 , 140 , 153",,0,http://www.madrid.es/sites/v/index.jsp?vgnextchannel=bfa48ab43d6bb410VgnVCM100000171f5a0aRCRD&vgnextoid=8add2414d35e1110VgnVCM1000000b205a0aRCRD,guadalajara,0,MADRID,MADRID,28032,ARCOS,SAN BLAS-CANILLEJAS,447550,4474613,40.42048481589473,-3.618277425225656,CamposEstadiosFutbol
4582856,Instalación Deportiva Municipal Básica Hermanos Trueba,,, Pista de balonmano Pistas de baloncesto Pista de voleibol,"Pista de balonmano ,Pista de baloncesto ,Pista de voleibol ","Bus: 57 , 103 , 111 , 144 , 310",,0,http://www.madrid.es/sites/v/index.jsp?vgnextchannel=bfa48ab43d6bb410VgnVCM100000171f5a0aRCRD&vgnextoid=eba13c5ea1db2110VgnVCM1000000b205a0aRCRD,hermanos trueba,30,MADRID,MADRID,28018,PALOMERAS BAJAS,PUENTE DE VALLECAS,443882,4470985,40.38569029812835,-3.6624581249928854,InstalacionesDeportivasBasicas
4549105,Instalación Deportiva Municipal Básica Hogar del Ferroviario,,, Pista de fútbol ,Pista de fútbol ,"Metro: EstrellaBus: 8 , 20 , 30 , 32 , 113",,0,http://www.madrid.es/sites/v/index.jsp?vgnextchannel=bfa48ab43d6bb410VgnVCM100000171f5a0aRCRD&vgnextoid=4bed787f05d91110VgnVCM2000000c205a0aRCRD,mediterraneo,0,MADRID,MADRID,28030,FONTARRON,MORATALAZ,444009,4473345,40.40695911649336,-3.6611698838232107,CamposEstadiosFutbol
4659422,Instalación Deportiva Municipal Básica Hornero,,, Pista polideportiva,Pista polideportiva,"Metro: Plaza Elíptica , Opañel.Bus: 55 , 60 , 108 , 116 , 118 , 155.",,0,http://www.madrid.es/sites/v/index.jsp?vgnextchannel=bfa48ab43d6bb410VgnVCM100000171f5a0aRCRD&vgnextoid=3000c904fba65110VgnVCM1000000b205a0aRCRD,hornero,1,MADRID,MADRID,28019,OPAÑEL,CARABANCHEL,438842,4471097,40.38821661890276,-3.7205798436124597,InstalacionesDeportivasBasicas
4541383,Instalación Deportiva Municipal Básica Huerta de la Salud,,, Pista de Baloncesto,Pista de baloncesto ,"Metro: San Lorenzo , Parque de Santa María.Bus: 9 , 72 , 87 , 107",,0,http://www.madrid.es/sites/v/index.jsp?vgnextchannel=bfa48ab43d6bb410VgnVCM100000171f5a0aRCRD&vgnextoid=dcd3ced208a51110VgnVCM1000000b205a0aRCRD,alcobendas,3,MADRID,MADRID,28033,PINAR DEL REY,HORTALEZA,445553,4480683,40.47505435038131,-3.642315547728054,InstalacionesDeportivasBasicas
4627943,Instalación Deportiva Municipal Básica Illescas,,, Pista de petanca,Pista de petanca ,"Metro: CampamentoBus: 25 , 36 , 39 , 121 , 131 , H",,0,http://www.madrid.es/sites/v/index.jsp?vgnextchannel=bfa48ab43d6bb410VgnVCM100000171f5a0aRCRD&vgnextoid=bcd8f1723a784110VgnVCM1000000b205a0aRCRD,illescas,0,MADRID,MADRID,28024,ALUCHE,LATINA,435112,4472342,40.39727663517988,-3.7659134453115457,InstalacionesDeportivasBasicas
4584299,Instalación Deportiva Municipal Básica Imagen,,, Pistas de baloncesto,Pista de baloncesto ,"Bus: 24 , 57 , 103 , 111 , 144Renfe: Entrevías",,0,http://www.madrid.es/sites/v/index.jsp?vgnextchannel=bfa48ab43d6bb410VgnVCM100000171f5a0aRCRD&vgnextoid=ea338ad3672c2110VgnVCM1000000b205a0aRCRD,imagen,23,MADRID,MADRID,28018,SAN DIEGO,PUENTE DE VALLECAS,443434,4470730,40.38336275152153,-3.667713277656222,InstalacionesDeportivasBasicas
4538608,Instalación Deportiva Municipal Básica Isabel Patacón,,, Pista polideportiva,Pista polideportiva,"Metro: Carabanchel AltoBus: 108 , 118",,0,http://www.madrid.es/sites/v/index.jsp?vgnextchannel=bfa48ab43d6bb410VgnVCM100000171f5a0aRCRD&vgnextoid=3541ddee16b41110VgnVCM1000000b205a0aRCRD,isabel patacon,0,MADRID,MADRID,28044,BUENAVISTA,CARABANCHEL,436523,4469131,40.370369111020395,-3.747622431727254,InstalacionesDeportivasBasicas
4547279,Instalación Deportiva Municipal Básica Isla de Tabarca,,,Pista de fútbol (césped artificial).  Pista de fútbol  (césped artificial).  Pista de baloncesto.  pistas de baloncesto x.,"Pista de fútbol ,Pista de fútbol ,Pista de baloncesto ,Pista de baloncesto ","Metro: Avenida de la Ilustración, PeñagrandeBus:  42 , 67 , 127 , 137",,0,http://www.madrid.es/sites/v/index.jsp?vgnextchannel=bfa48ab43d6bb410VgnVCM100000171f5a0aRCRD&vgnextoid=1b1898d6f7291110VgnVCM2000000c205a0aRCRD,santiago de compostela,104,MADRID,MADRID,28035,PEÑA GRANDE,FUENCARRAL-EL PARDO,438898,4480931,40.476809546000716,-3.7208537072021843,CamposEstadiosFutbol
4538129,Instalación Deportiva Municipal Básica Iván de Vargas,,,Superficie:   m Equipamientos:  Pista polideportiva,Pista polideportiva,"Bus: 17 , 25 , 50",,0,http://www.madrid.es/sites/v/index.jsp?vgnextchannel=bfa48ab43d6bb410VgnVCM100000171f5a0aRCRD&vgnextoid=1a188ff806a41110VgnVCM1000000b205a0aRCRD,ivan de vargas,4,MADRID,MADRID,28019,SAN ISIDRO,CARABANCHEL,438545,4472717,40.40279748246847,-3.724235302224272,InstalacionesDeportivasBasicas
4538476,Instalación Deportiva Municipal Básica Jacinto Verdaguer,,,Superficie: . m  Equipamientos:     Pista de baloncesto  Pista de fútbol sala  Pista de patinaje  Tenis de mesa,"Pista de baloncesto ,Pista de fútbol ,Pista de patinaje ","Metro: Marqués de VadilloBus: 23 , 34 , 35 , 116 , 118 , 119",,0,http://www.madrid.es/sites/v/index.jsp?vgnextchannel=bfa48ab43d6bb410VgnVCM100000171f5a0aRCRD&vgnextoid=09f5db6d12b41110VgnVCM1000000b205a0aRCRD,jacinto verdaguer,17,MADRID,MADRID,28019,OPAÑEL,CARABANCHEL,439173,4471909,40.395564824892936,-3.7167461338350964,PistasPatinaje
4563440,Instalación Deportiva Municipal Básica Jardines Alhambra,,, Pista de patinaje Pistas de chito,"Pista de patinaje ,Pistas de chito ","Metro: Lucero , LagunaBus: 31 , 119 , 138Renfe: Laguna",,0,http://www.madrid.es/sites/v/index.jsp?vgnextchannel=bfa48ab43d6bb410VgnVCM100000171f5a0aRCRD&vgnextoid=6cee8fa983e12110VgnVCM1000000b205a0aRCRD,alhambra,0,MADRID,MADRID,28047,LOS CARMENES,LATINA,436915,4472955,40.40293756394919,-3.7447301071971477,PistasPatinaje
4563407,Instalación Deportiva Municipal Básica Jardines General Fanjul,,, Pistas de fútbol sala Pista de baloncesto.,"Pista de fútbol ,Pista de baloncesto ","Bus: 17 , 34 , 39 , 117 , 139.Renfe: Las Águilas",,0,http://www.madrid.es/sites/v/index.jsp?vgnextchannel=bfa48ab43d6bb410VgnVCM100000171f5a0aRCRD&vgnextoid=d6c2ad4612e12110VgnVCM1000000b205a0aRCRD,las aguilas,0,MADRID,MADRID,28044,LAS AGUILAS,LATINA,435330,4470790,40.385197861740814,-3.7619024102187755,CamposEstadiosFutbol
4561139,Instalación Deportiva Municipal Básica Jardines Vía Carpetana,,, Pista de patinaje.,Pista de patinaje ,"Metro: CarpetanaBus: 17, 25 , 55 , 119",,0,http://www.madrid.es/sites/v/index.jsp?vgnextchannel=bfa48ab43d6bb410VgnVCM100000171f5a0aRCRD&vgnextoid=c89910d87c902110VgnVCM1000000b205a0aRCRD,via carpetana,0,MADRID,MADRID,28047,ALUCHE,LATINA,437152,4471797,40.392523761783345,-3.7418228649672196,PistasPatinaje
4542557,Instalación Deportiva Municipal Básica Jardines de Bucaramanga,,, Pistas de baloncesto x   Pistas de bolos y petanca  Pista de chito  Tenis de mesa,"Pista de baloncesto ,Pista de bolos ,Pistas de chito ","Metro: Mar de Cristal , San LorenzoBus: 72 , 87 , 104 , 120 , 125",,0,http://www.madrid.es/sites/v/index.jsp?vgnextchannel=bfa48ab43d6bb410VgnVCM100000171f5a0aRCRD&vgnextoid=6b769fbdc8e61110VgnVCM1000000b205a0aRCRD,bucaramanga,2,MADRID,MADRID,28033,PINAR DEL REY,HORTALEZA,445961,4480569,40.47216617986823,-3.6387819347036476,InstalacionesDeportivasBasicas
4527106,Instalación Deportiva Municipal Básica Jardín Canarias,,, Pista de bolos  Pistas de petanca,"Pista de bolos ,Pista de petanca ","Metro: Palos de la FronteraBus: 6 , 8 , 19 , 45 , 47 , 55 , 59 , 85 , 86 , 102 , 247Renfe: Delicias.",,0,http://www.madrid.es/sites/v/index.jsp?vgnextchannel=bfa48ab43d6bb410VgnVCM100000171f5a0aRCRD&vgnextoid=5b06e4148dde0110VgnVCM1000000b205a0aRCRD,canarias,19,MADRID,MADRID,28045,PALOS DE MOGUER,ARGANZUELA,441052,4472636,40.40224012314781,-3.694673997707994,InstalacionesDeportivasBasicas
5701075,Instalación Deportiva Municipal Básica Jardín Papelera Peninsular,,, Pistas de tenis  Pistas de patinaje,"Pistas de tenis ,Pista de patinaje ","Metro: Pirámides.Bus: 18 , 34 , 36 , 116 , 118 , 119Renfe: Pirámides.",,0,http://www.madrid.es/sites/v/index.jsp?vgnextchannel=bfa48ab43d6bb410VgnVCM100000171f5a0aRCRD&vgnextoid=46864e10924d8210VgnVCM2000000c205a0aRCRD,arganda,3,MADRID,MADRID,28005,ACACIAS,ARGANZUELA,439886,4472420,40.40021085294591,-3.7084051499449053,InstalacionesDeportivasBasicas
4541324,Instalación Deportiva Municipal Básica Jardín de Portugalete,,, Pista de Baloncesto,Pista de baloncesto ,"Metro: Arturo SoriaBus: 11 , 70 , 120 , 122.",,0,http://www.madrid.es/sites/v/index.jsp?vgnextchannel=bfa48ab43d6bb410VgnVCM100000171f5a0aRCRD&vgnextoid=1e463c00a6a51110VgnVCM1000000b205a0aRCRD,ulises,23,MADRID,MADRID,28043,CANILLAS,HORTALEZA,444705,4478939,40.45739950911607,-3.6534554216138133,InstalacionesDeportivasBasicas
5941245,Instalación Deportiva Municipal Básica Jazmin,,,Pista polideportiva,Pista polideportiva,"Metro: Pinar de ChamartínBus: 29 , 125 , 129 , 150.",,0,http://www.madrid.es/sites/v/index.jsp?vgnextchannel=bfa48ab43d6bb410VgnVCM100000171f5a0aRCRD&vgnextoid=054de22597bed210VgnVCM1000000b205a0aRCRD,jazmin,36,MADRID,MADRID,28033,COSTILLARES,CIUDAD LINEAL,443605,4481303,40.47862144632099,-3.6666387122877064,CamposEstadiosFutbol
4531170,Instalación Deportiva Municipal Básica Jesús Aprendiz,,, Pista de Baloncesto Pista de Fútbol sala,"Pista de baloncesto ,Pista de fútbol ","Metro: Conde CasalBus: 14, 20 , 26 , 30 , 32, 56, 63, 143 , 152 , 156.",,0,http://www.madrid.es/sites/v/index.jsp?vgnextchannel=bfa48ab43d6bb410VgnVCM100000171f5a0aRCRD&vgnextoid=bcf31cb097c01110VgnVCM1000000b205a0aRCRD,antonio diaz-cañabate,9,MADRID,MADRID,28007,NIÑO JESUS,RETIRO,443099,4473604,40.40922156877915,-3.671905186964673,CamposEstadiosFutbol
4582793,Instalación Deportiva Municipal Básica Jesús Divino Obrero,,, Pista de balonmano Pistas de baloncesto,"Pista de balonmano ,Pista de baloncesto ","Metro: Buenos AiresBus: 54 , 58 , 63 , 103 , 141 , 143",,0,http://www.madrid.es/sites/v/index.jsp?vgnextchannel=bfa48ab43d6bb410VgnVCM100000171f5a0aRCRD&vgnextoid=40a294617fcb2110VgnVCM1000000b205a0aRCRD,humanes,0,MADRID,MADRID,28038,PORTAZGO,PUENTE DE VALLECAS,445057,4471818,40.39514492871647,-3.6474211389918123,InstalacionesDeportivasBasicas
4554621,Instalación Deportiva Municipal Básica Joaquín Ibarra,,, Pista de baloncesto Pista de voleibol,"Pista de baloncesto ,Pista de voleibol ","Metro: Alameda de OsunaBus: 101 , 105 , 112 , 115 , 151",,0,http://www.madrid.es/sites/v/index.jsp?vgnextchannel=bfa48ab43d6bb410VgnVCM100000171f5a0aRCRD&vgnextoid=1f15c4dfc1bd1110VgnVCM1000000b205a0aRCRD,joaquin ibarra,0,MADRID,MADRID,28042,ALAMEDA DE OSUNA,BARAJAS,449683,4478978,40.459939211411836,-3.5934812403258682,InstalacionesDeportivasBasicas
5566865,Instalación Deportiva Municipal Básica José Durán,,,Pista de atletismo Pista de fútbol Pista de balonmano Pistas de baloncesto Vestuario Almacén,"Pista de atletismo ,Pista de fútbol ,Pista de balonmano ,Pista de baloncesto ","Bus: 24 , 57 , 102 , 136 , 144Renfe: El Pozo",,0,http://www.madrid.es/sites/v/index.jsp?vgnextchannel=bfa48ab43d6bb410VgnVCM100000171f5a0aRCRD&vgnextoid=07c43faf12d96210VgnVCM2000000c205a0aRCRD,parque de palomeras bajas,10,MADRID,MADRID,28018,PALOMERAS BAJAS,PUENTE DE VALLECAS,443720,4470415,40.3805444480093,-3.6643161830740074,CamposEstadiosFutbol
4564116,Instalación Deportiva Municipal Básica José de Cadalso,,, Pista de patinaje,Pista de patinaje ,"Bus: 17 , 34 , 39 , 117 , 139 , 155.",,0,http://www.madrid.es/sites/v/index.jsp?vgnextchannel=bfa48ab43d6bb410VgnVCM100000171f5a0aRCRD&vgnextoid=fe5ee4c9d1322110VgnVCM1000000b205a0aRCRD,jose de cadalso,0,MADRID,MADRID,28044,LAS AGUILAS,LATINA,434871,4470183,40.37780868617553,-3.768531953881764,PistasPatinaje
4547661,Instalación Deportiva Municipal Básica José de Pasamonte,,, Pista de baloncesto,Pista de baloncesto ,"Metro: VinaterosBus: 32 , 71 , 113.",,0,http://www.madrid.es/sites/v/index.jsp?vgnextchannel=bfa48ab43d6bb410VgnVCM100000171f5a0aRCRD&vgnextoid=0bdbc9ba6f391110VgnVCM2000000c205a0aRCRD,doctor garcia tapia,51,MADRID,MADRID,28030,MARROQUINA,MORATALAZ,445286,4473883,40.411890813674326,-3.6461672639418037,InstalacionesDeportivasBasicas
